State,District,Latitude,Longitude,District code,State name,Population,Male,Female,Literate,Male_Literate,Female_Literate,Workers,Male_Workers,Female_Workers,Agricultural_Workers,Household_Workers,Hindus,Muslims,Christians,Sikhs,Buddhists,Jains,Housholds_with_Electric_Lighting,Households_with_Internet,Households_with_Computer,Below_Primary_Education,Primary_Education,Middle_Education,Secondary_Education,Higher_Education,Graduate_Education,Literate_Education,Illiterate_Education,Total_Power_Parity,Literacy_Rate,Male_Literacy_Rate,Sex_Ratio,Female_Literacy_Rate,Literacy_Gender_Gap,Low_Income,Middle_Income,High_Income,Worker_Participation_Rate,Male_Worker_Participation_Rate,Female_Worker_Participation_Rate,Electrification_Rate,Internet_Access_Rate,Computer_Access_Rate,Youth_Population_Percent,Middle_Age_Population_Percent,Senior_Population_Percent,Below_Primary_Education_Rate,Literate_Education_Rate,Illiteracy_Rate
Andhra Pradesh,Adilabad,19.284513950073435,78.81321233480176,532,ANDHRA PRADESH,2741239,1369597,1371642,1483347,856350,626997,1323667,748939,574728,484912,84661,2399901,275970,15422,1377,25510,617,566108,5512,45202,232470,344167,281752,225957,143143,100226,1346992,1030640,4181,54.0,63.0,1001.4931399528475,46.0,17.0,648,2870,315,48.0,55.0,42.0,21.0,0.0,2.0,56.0,26.0,15.0,8.0,49.0,38.0
Andhra Pradesh,Anantapur,14.312065561843148,77.4601584478577,553,ANDHRA PRADESH,4081148,2064495,2016653,2310960,1338474,972486,2036166,1208544,827622,879537,105343,3599372,443456,20463,932,341,1417,897970,8606,48299,462273,720357,582075,331793,162175,144915,2426929,1369069,5799,57.0,65.0,976.8262940816035,48.0,17.0,969,3857,536,50.0,59.0,41.0,22.0,0.0,1.0,54.0,27.0,18.0,11.0,59.0,34.0
Andhra Pradesh,Chittoor,13.33109263067696,78.92763898886037,554,ANDHRA PRADESH,4174064,2090204,2083860,2667878,1484794,1183084,1933357,1202223,731134,748093,57269,3737588,397870,24129,867,253,1322,944555,13763,67087,522961,770836,673197,548336,265199,246409,3062955,1170993,5926,64.0,71.0,996.9648895514505,57.0,14.0,1021,3835,693,46.0,58.0,35.0,23.0,0.0,2.0,51.0,28.0,19.0,13.0,73.0,28.0
Andhra Pradesh,East Godavari,16.782718320784902,82.2432074720511,545,ANDHRA PRADESH,5154296,2569688,2584608,3288577,1716933,1571644,2093681,1545831,547850,1122046,57853,4983330,77777,77825,738,413,4149,1297273,22411,93784,669420,947606,797497,521562,271809,263023,3518619,1524603,7211,64.0,67.0,1005.8061523422299,61.0,6.0,1274,4814,643,41.0,60.0,21.0,25.0,0.0,2.0,53.0,29.0,18.0,13.0,68.0,30.0
Andhra Pradesh,Guntur,15.884925767634847,80.58657614107885,548,ANDHRA PRADESH,4887813,2440521,2447292,2960441,1634726,1325715,2381624,1442370,939254,1227956,47436,4217597,559770,89763,764,323,3282,1186028,19383,80434,736270,845810,674957,453446,246580,221924,3209266,1474349,6981,61.0,67.0,1002.7744075957552,54.0,13.0,1119,4610,701,49.0,59.0,38.0,24.0,0.0,2.0,53.0,28.0,19.0,15.0,66.0,30.0
Andhra Pradesh,Hyderabad,17.38971555555556,78.46668888888888,536,ANDHRA PRADESH,3943323,2018575,1924748,2892155,1542688,1349467,1413297,1045585,367712,23029,46157,2046051,1713405,87522,11446,1268,19560,869721,149034,274653,230962,596591,685215,811501,517425,558090,3445721,556902,11071,73.0,76.0,953.5181997200996,70.0,6.0,416,5212,3912,36.0,52.0,19.0,22.0,4.0,7.0,57.0,27.0,14.0,6.0,87.0,14.0
Andhra Pradesh,Karimnagar,18.515483193277312,79.43765428571413,534,ANDHRA PRADESH,3776269,1880800,1895469,2206829,1257238,949591,1876768,1049463,827305,756859,168340,3491139,244723,24979,2086,332,312,926768,8831,46584,340372,453505,482842,463403,293493,256633,2325560,1280393,5251,58.0,67.0,1007.7993407060826,50.0,17.0,961,3583,413,50.0,56.0,44.0,25.0,0.0,1.0,51.0,27.0,19.0,9.0,62.0,34.0
Andhra Pradesh,Khammam,17.683921325051784,80.67008643892335,541,ANDHRA PRADESH,2797370,1390988,1406382,1630234,901640,728594,1410062,802906,607156,804537,19799,2595321,158887,33463,655,217,459,668519,8628,42171,295639,346118,329630,238811,154774,160804,1551232,875272,3836,58.0,65.0,1011.0669538486314,52.0,13.0,732,2596,280,50.0,58.0,43.0,24.0,0.0,2.0,55.0,28.0,17.0,11.0,55.0,31.0
Andhra Pradesh,Krishna,16.143872753151673,81.14805061000413,547,ANDHRA PRADESH,4517398,2267375,2250023,3009718,1598959,1410759,2048880,1327299,721581,1006976,48444,4023678,307043,145598,1393,863,6320,1163932,30438,101450,618101,692968,630603,531821,312753,328454,3169428,1352499,6983,67.0,71.0,992.347097414411,63.0,8.0,1054,4586,814,45.0,59.0,32.0,26.0,1.0,2.0,52.0,28.0,18.0,14.0,70.0,30.0
Andhra Pradesh,Kurnool,15.43759715142429,77.90086836581717,552,ANDHRA PRADESH,4053463,2039227,2014236,2127161,1246369,880792,2029425,1164122,865303,1037302,60791,3328380,670737,33165,737,255,2235,816721,10081,56478,521327,672951,466940,271828,152453,115504,2220285,1517933,5301,52.0,61.0,987.7448660693489,44.0,17.0,1042,3518,407,50.0,57.0,43.0,20.0,0.0,1.0,58.0,26.0,15.0,13.0,55.0,37.0
Andhra Pradesh,Mahbubnagar,16.639546224256293,77.98933089244859,538,ANDHRA PRADESH,4053028,2050386,2002642,1940646,1158386,782260,2082501,1140067,942434,931084,57846,3673456,334172,21345,658,290,388,757821,6153,60812,419379,596134,441585,308575,169083,98227,2049104,1604319,4695,48.0,56.0,976.7146283675366,39.0,17.0,1068,3241,226,51.0,56.0,47.0,19.0,0.0,2.0,58.0,25.0,16.0,10.0,51.0,40.0
Andhra Pradesh,Medak,17.889304978038055,78.13778901903379,535,ANDHRA PRADESH,3033288,1523030,1510258,1637137,953406,683731,1442203,837874,604329,571129,67642,2637313,342449,34301,1309,554,457,604719,8635,47170,324267,503713,481984,373729,201928,127493,2029580,1199818,3874,54.0,63.0,991.6140850803989,45.0,18.0,786,2656,259,48.0,55.0,40.0,20.0,0.0,2.0,57.0,26.0,17.0,11.0,67.0,40.0
Andhra Pradesh,Nalgonda,17.113250515463907,79.16984453608244,539,ANDHRA PRADESH,3488809,1759772,1729037,2001019,1160757,840262,1741693,976428,765265,863131,45124,3249231,188646,35025,937,241,250,789225,7715,53777,369537,518669,471233,367424,238695,196134,2188695,1294811,4468,57.0,66.0,982.5346692639728,49.0,17.0,968,3043,249,50.0,55.0,44.0,23.0,0.0,2.0,55.0,26.0,19.0,11.0,63.0,37.0
Andhra Pradesh,Nizamabad,18.429485849056604,78.07523490566035,533,ANDHRA PRADESH,2551335,1250641,1300694,1389810,790214,599596,1261076,684320,576756,448281,171311,2123426,391596,19653,2357,1847,542,545913,5261,35036,269487,421399,338668,396396,223365,141850,1804547,1041862,3458,54.0,63.0,1040.0218767815863,46.0,17.0,661,2399,221,49.0,55.0,44.0,21.0,0.0,1.0,55.0,27.0,17.0,11.0,71.0,41.0
Andhra Pradesh,Prakasam,15.489039001601704,80.11665790176184,549,ANDHRA PRADESH,3397448,1714764,1682684,1904435,1107686,796749,1700567,991842,708725,889218,42603,3150195,220654,18775,266,97,204,763746,6151,43611,489805,495556,368919,249034,142026,133627,1900943,1218310,4304,56.0,65.0,981.2918862304084,47.0,18.0,855,2973,283,50.0,58.0,42.0,22.0,0.0,1.0,54.0,27.0,19.0,14.0,56.0,36.0
Andhra Pradesh,Srikakulam,18.570900998697432,84.25874814010675,542,ANDHRA PRADESH,2703114,1341738,1361376,1495381,857824,637557,1290288,766483,523805,700833,34479,2666950,9025,18879,193,77,160,615432,3988,32280,291793,348354,319244,251521,146721,121213,1499877,1009992,3301,55.0,64.0,1014.6362404582713,47.0,17.0,743,2278,171,48.0,57.0,38.0,23.0,0.0,1.0,53.0,28.0,20.0,11.0,55.0,37.0
Andhra Pradesh,Vizianagaram,18.28329696032972,83.45982854198873,543,ANDHRA PRADESH,2344474,1161477,1182997,1238388,707503,530885,1157962,679289,478673,557254,27469,2299129,16423,17853,380,114,815,527736,4453,24128,250446,300057,257468,186576,115144,103591,1240323,1031683,3103,53.0,61.0,1018.5281327137774,45.0,16.0,613,2110,191,49.0,58.0,40.0,23.0,0.0,1.0,51.0,28.0,19.0,11.0,53.0,44.0
Andhra Pradesh,Warangal,18.01752608695651,79.87422028985509,540,ANDHRA PRADESH,3512576,1759281,1753295,2065023,1179790,885233,1705655,960926,744729,758092,43550,3273755,197333,31377,1453,253,569,828077,12952,59006,314252,457529,454322,430242,279234,248942,2212184,1191252,4762,59.0,67.0,996.5974736270101,50.0,17.0,938,3139,413,49.0,55.0,42.0,24.0,0.0,2.0,54.0,27.0,19.0,9.0,63.0,34.0
Andhra Pradesh,West Godavari,16.63297943925236,81.45912990654196,546,ANDHRA PRADESH,3936966,1964918,1972048,2652389,1379223,1273166,1773112,1199338,573774,1061787,33861,3733191,86142,109120,288,209,1578,1017568,12050,55613,595331,718960,585595,415178,215863,207586,2771842,1028767,5485,67.0,70.0,1003.6286501523219,65.0,5.0,1011,3737,429,45.0,61.0,29.0,26.0,0.0,1.0,52.0,29.0,19.0,15.0,70.0,26.0
Arunachal Pradesh,Changlang,27.36048479338845,96.37552644628106,253,ARUNACHAL PRADESH,148226,76948,71278,73174,44027,29147,62966,39329,23637,4208,496,47683,2134,35969,94,50381,95,14593,170,1486,20425,22537,17354,10032,5641,3633,80456,57290,348,49.0,57.0,926.3138743047252,41.0,16.0,52,231,53,42.0,51.0,33.0,10.0,0.0,1.0,65.0,24.0,11.0,14.0,54.0,39.0
Arunachal Pradesh,East Kameng,27.371194055944056,93.04741486013997,247,ARUNACHAL PRADESH,78690,38775,39915,38449,21599,16850,31710,16424,15286,1063,273,12333,652,37136,36,452,23,5318,57,885,11713,10487,8852,6213,4510,2330,44247,31763,348,49.0,56.0,1029.4003868471953,42.0,14.0,52,231,53,40.0,42.0,38.0,7.0,0.0,1.0,68.0,23.0,9.0,15.0,56.0,40.0
Arunachal Pradesh,East Siang,28.15382352941176,95.06499226006191,251,ARUNACHAL PRADESH,99214,50116,49098,62576,34210,28366,40222,23591,16631,3565,493,27854,2289,18254,69,776,30,14231,450,1582,9938,13713,13968,10937,9498,6540,65119,21543,644,63.0,68.0,979.6871258679862,58.0,10.0,68,385,145,41.0,47.0,34.0,14.0,0.0,2.0,62.0,26.0,12.0,10.0,66.0,22.0
Arunachal Pradesh,Kurung Kumey,28.04853351800553,93.24531994459834,256,ARUNACHAL PRADESH,92076,45318,46758,36606,20258,16348,38044,18429,19615,2947,833,4859,471,51189,43,121,81,3911,95,969,12661,15054,12264,6997,4353,2031,53659,42621,348,40.0,45.0,1031.7754534622004,35.0,10.0,52,231,53,41.0,41.0,42.0,4.0,0.0,1.0,70.0,22.0,7.0,14.0,58.0,46.0
Arunachal Pradesh,Lohit,27.946785273972623,96.59670770547945,259,ARUNACHAL PRADESH,145726,76221,69505,83062,48380,34682,60945,38910,22035,7789,786,99020,3846,10684,210,24452,104,17157,312,1471,19306,25179,20643,13070,7612,5180,91574,52421,348,57.0,63.0,911.887799950145,50.0,13.0,52,231,53,42.0,51.0,32.0,12.0,0.0,1.0,65.0,24.0,10.0,13.0,63.0,36.0
Arunachal Pradesh,Lower Dibang Valley,28.32651730103806,95.76567335640142,258,ARUNACHAL PRADESH,54080,28053,26027,31849,18087,13762,22326,14102,8224,3354,233,28915,2247,9213,33,2932,19,5932,207,742,5875,7957,7351,5508,3570,2795,33141,14406,348,59.0,64.0,927.7795601183474,53.0,11.0,52,231,53,41.0,50.0,32.0,11.0,0.0,1.0,65.0,25.0,10.0,11.0,61.0,27.0
Arunachal Pradesh,Lower Subansiri,27.70849297297297,93.96226108108112,255,ARUNACHAL PRADESH,83030,41843,41187,54057,29470,24587,30202,17339,12863,1968,435,9551,1482,34402,27,193,13,12493,381,1598,8492,10821,11661,9861,7674,5230,54034,17273,348,65.0,70.0,984.3223478240088,60.0,10.0,52,231,53,36.0,41.0,31.0,15.0,0.0,2.0,67.0,24.0,9.0,10.0,65.0,21.0
Arunachal Pradesh,Papum Pare,27.273529716981127,93.54468183962264,248,ARUNACHAL PRADESH,176573,89182,87391,121048,65794,55254,65772,41263,24509,1859,1543,57027,6148,84397,310,4768,139,30539,2477,7418,15368,21956,21376,20007,17342,13840,110815,30360,644,69.0,74.0,979.9174721356327,63.0,11.0,68,385,145,37.0,46.0,28.0,17.0,1.0,4.0,68.0,25.0,7.0,9.0,63.0,17.0
Arunachal Pradesh,Tawang,27.680683962264148,91.82504245283016,245,ARUNACHAL PRADESH,49977,29151,20826,26073,17720,8353,28561,19554,9007,1581,114,11842,787,776,1164,34920,72,8635,96,494,4904,4730,4029,2140,1989,1379,19838,19203,348,52.0,61.0,714.418030256252,40.0,21.0,52,231,53,57.0,67.0,43.0,17.0,0.0,1.0,61.0,28.0,11.0,10.0,40.0,38.0
Arunachal Pradesh,Tirap,26.94406229508198,95.41470327868862,254,ARUNACHAL PRADESH,111975,57604,54371,47974,29313,18661,50169,27545,22624,1811,836,20682,1103,83361,61,778,43,16026,98,888,13585,16989,12077,7834,4305,2134,57106,50628,348,43.0,51.0,943.8754253176863,34.0,17.0,52,231,53,45.0,48.0,42.0,14.0,0.0,1.0,64.0,23.0,13.0,12.0,51.0,45.0
Arunachal Pradesh,Upper Siang,28.8309244897959,95.00155765306124,252,ARUNACHAL PRADESH,35320,18699,16621,18195,10723,7472,17644,9968,7676,804,591,5261,411,5643,27,2577,7,6198,97,392,3952,5584,4915,2935,2211,1349,20992,11209,348,52.0,57.0,888.8710626236697,45.0,12.0,52,231,53,50.0,53.0,46.0,18.0,0.0,1.0,60.0,25.0,15.0,11.0,59.0,32.0
Arunachal Pradesh,Upper Subansiri,28.277196566523585,93.8991435622318,249,ARUNACHAL PRADESH,83448,41758,41690,45278,24807,20471,33370,17898,15472,1846,481,13474,521,8779,28,297,11,5373,139,750,10219,16118,15339,10348,8017,4276,64790,28364,348,54.0,59.0,998.371569519613,49.0,10.0,52,231,53,40.0,43.0,37.0,6.0,0.0,1.0,67.0,24.0,9.0,12.0,78.0,34.0
Arunachal Pradesh,West Kameng,27.46486582278483,92.65015750452083,246,ARUNACHAL PRADESH,83947,46155,37792,48492,29566,18926,42493,28313,14180,1705,801,31265,1970,8466,328,36087,71,14188,202,887,8836,10317,8428,5633,3987,2693,40193,25606,348,58.0,64.0,818.8061965117539,50.0,14.0,52,231,53,51.0,61.0,38.0,17.0,0.0,1.0,63.0,27.0,10.0,11.0,48.0,31.0
Arunachal Pradesh,West Siang,28.106296920289843,94.53510344202908,250,ARUNACHAL PRADESH,112274,58168,54106,64746,36777,27969,49177,29156,20021,1384,298,15881,2218,29969,577,3311,49,14204,303,1300,14227,17675,15908,11441,8418,6030,74220,27956,348,58.0,63.0,930.1677898500894,52.0,11.0,52,231,53,44.0,50.0,37.0,13.0,0.0,1.0,63.0,25.0,12.0,13.0,66.0,25.0
Assam,Barpeta,26.427872264631056,90.97912010178116,303,ASSAM,1693622,867004,826618,897058,499038,398020,561824,445297,116527,98946,30342,492966,1198036,1020,112,49,399,84804,2078,25286,210607,307884,300845,121924,87377,46947,1083591,664161,348,53.0,58.0,953.4189000281428,48.0,10.0,52,231,53,33.0,51.0,14.0,5.0,0.0,1.0,63.0,24.0,13.0,12.0,64.0,39.0
Assam,Bongaigaon,26.45012521994133,90.6734296187684,319,ASSAM,738804,375818,362986,434078,237114,196964,255806,197542,58264,47406,9485,359145,371033,5924,384,236,871,49866,2523,12959,93591,138294,133643,55924,35491,20221,479431,260721,348,59.0,63.0,965.8558131861698,54.0,9.0,52,231,53,35.0,53.0,16.0,7.0,0.0,2.0,62.0,25.0,13.0,13.0,65.0,35.0
Assam,Cachar,24.815570668693017,92.86849650455927,316,ASSAM,1736617,886284,850333,1174128,639946,534182,608062,469752,138310,68664,24466,1038985,654816,37635,280,341,1673,140205,5316,37541,256855,447993,379469,156156,79766,45341,1378531,357907,348,68.0,72.0,959.4362529392384,63.0,9.0,52,231,53,35.0,53.0,16.0,8.0,0.0,2.0,60.0,26.0,14.0,15.0,79.0,21.0
Assam,Darrang,26.58463215962442,92.04141338028155,325,ASSAM,928500,475273,453227,487039,268666,218373,324843,246864,77979,81617,10542,327322,597392,1688,431,57,724,45444,1166,12084,119027,163277,161153,59039,47398,22267,575240,375556,348,52.0,57.0,953.6140281480328,48.0,9.0,52,231,53,35.0,52.0,17.0,5.0,0.0,1.0,63.0,24.0,13.0,13.0,62.0,40.0
Assam,Dhemaji,27.586533438485816,94.71336908517353,308,ASSAM,686133,351249,334884,423028,237761,185267,316800,186577,130223,19181,7224,655052,13475,8711,297,911,167,28195,1192,10410,79107,138838,136371,80804,55399,28006,521393,194984,348,62.0,68.0,953.4091200259644,55.0,13.0,52,231,53,46.0,53.0,39.0,4.0,0.0,2.0,63.0,25.0,12.0,12.0,76.0,28.0
Assam,Dibrugarh,27.30612284482757,95.0998282327587,310,ASSAM,1326335,676434,649901,884531,491361,393170,560557,368013,192544,61209,14362,1198401,64526,52968,2261,4673,1055,136685,8817,34479,143189,243607,301287,139813,89500,59380,983760,340744,348,67.0,73.0,960.7751827968435,60.0,13.0,52,231,53,42.0,54.0,30.0,10.0,1.0,3.0,58.0,28.0,14.0,11.0,74.0,26.0
Assam,Goalpara,26.017277777777807,90.59869891598912,302,ASSAM,1008183,513292,494891,563577,304302,259275,362573,267118,95455,75828,14346,347878,579929,77862,771,194,477,78641,1364,13524,124700,213510,183904,73683,39885,18294,657440,375071,348,56.0,59.0,964.1510095618089,52.0,7.0,52,231,53,36.0,52.0,19.0,8.0,0.0,1.0,65.0,24.0,12.0,12.0,65.0,37.0
Assam,Golaghat,26.377219709794485,93.82583397823468,313,ASSAM,1066888,543161,523727,721764,396475,325289,479928,309104,170824,66616,15068,917426,90312,50582,1131,3863,530,82345,3073,17636,117393,223902,261192,111145,66197,36887,820800,258897,348,68.0,73.0,964.220553390247,62.0,11.0,52,231,53,45.0,57.0,33.0,8.0,0.0,2.0,59.0,27.0,14.0,11.0,77.0,24.0
Assam,Hailakandi,24.457496089385486,92.59154664804475,318,ASSAM,659296,337890,321406,407366,226836,180530,214240,170792,43448,31248,7313,251194,397653,8480,84,490,247,44143,1211,10615,88596,177984,139029,50056,28504,11608,500042,173306,348,62.0,67.0,951.2148924206103,56.0,11.0,52,231,53,32.0,51.0,14.0,7.0,0.0,2.0,64.0,24.0,13.0,13.0,76.0,26.0
Assam,Jorhat,26.76244824016563,94.30197722567289,312,ASSAM,1092256,556805,535451,794929,432335,362594,498618,320746,177872,53153,31543,1008219,54684,21051,1540,2378,719,122063,5651,26357,99454,201680,295444,128050,97025,62608,892694,209170,348,73.0,78.0,961.6490512836631,68.0,10.0,52,231,53,46.0,58.0,33.0,11.0,1.0,2.0,55.0,29.0,16.0,9.0,82.0,19.0
Assam,Kamrup,26.170939452054807,91.58863273972592,321,ASSAM,1517542,778461,739081,995319,550219,445100,628954,428492,200462,99522,69106,877495,601784,33297,319,185,1330,122191,3109,23468,163849,290097,353861,154831,118849,55011,1142942,392678,348,66.0,71.0,949.4130084872588,60.0,11.0,52,231,53,41.0,55.0,27.0,8.0,0.0,2.0,59.0,27.0,14.0,11.0,75.0,26.0
Assam,Karbi Anglong,26.08966454598031,93.11536570271832,314,ASSAM,956313,490167,466146,557214,314253,242961,383441,246193,137248,60952,9861,766000,20290,157789,370,6260,397,53918,1923,11340,109324,212224,199289,93137,40602,18225,676227,310093,348,58.0,64.0,950.9942529790867,52.0,12.0,52,231,53,40.0,50.0,29.0,6.0,0.0,1.0,65.0,24.0,11.0,11.0,71.0,32.0
Assam,Karimganj,24.69660712250711,92.3679498575498,317,ASSAM,1228686,625864,602822,795297,435942,359355,399171,319798,79373,67033,17435,521962,692489,11990,114,446,524,70951,1933,24699,198059,333885,257931,76685,39637,21408,935508,303785,348,65.0,70.0,963.1836948602253,60.0,10.0,52,231,53,32.0,51.0,13.0,6.0,0.0,2.0,63.0,23.0,13.0,16.0,76.0,25.0
Assam,Kokrajhar,26.497246635730868,90.13997470997688,300,ASSAM,887142,452905,434237,489305,275220,214085,341131,236322,104809,56330,12423,529068,252271,101091,93,1718,396,41373,1218,14063,116899,166013,154715,78788,39571,17287,576006,340601,348,55.0,61.0,958.7816429494044,49.0,12.0,52,231,53,38.0,52.0,24.0,5.0,0.0,2.0,62.0,25.0,12.0,13.0,65.0,38.0
Assam,Lakhimpur,27.14128805970149,94.0775949253732,307,ASSAM,1042137,529674,512463,683486,375552,307934,429995,282250,147745,43922,10983,797130,193476,46217,412,1074,250,60296,1948,15011,126950,212080,217497,107326,82885,44212,795681,275677,348,66.0,71.0,967.5064284824251,60.0,11.0,52,231,53,41.0,53.0,29.0,6.0,0.0,1.0,61.0,26.0,13.0,12.0,76.0,26.0
Assam,Nagaon,26.26462170626351,92.9306191144708,305,ASSAM,2823768,1439112,1384656,1710716,921850,788866,979998,766728,213270,196174,38122,1225246,1563203,26844,3036,1073,1162,195631,5121,45956,392616,638088,576214,199792,115864,66994,1999919,873197,348,61.0,64.0,962.1599986658439,57.0,7.0,52,231,53,35.0,53.0,15.0,7.0,0.0,2.0,63.0,24.0,13.0,14.0,71.0,31.0
Assam,Nalbari,26.46323767605632,91.40598521126763,323,ASSAM,771639,396006,375633,531771,293184,238587,267623,210202,57421,34984,19302,491582,277488,429,62,27,1004,68313,1631,12360,75866,141690,192771,81507,71734,39368,606629,188960,348,69.0,74.0,948.5538097907607,64.0,10.0,52,231,53,35.0,53.0,15.0,9.0,0.0,2.0,57.0,27.0,15.0,10.0,79.0,24.0
Assam,Sonitpur,26.73514926829268,92.85197804878044,306,ASSAM,1924110,983904,940206,1108572,620525,488047,770606,537195,233411,114865,25719,1422824,350536,138166,1363,5088,1003,133368,4358,31254,216097,416218,377653,141373,90385,49901,1298039,627141,348,58.0,63.0,955.5871304517514,52.0,11.0,52,231,53,40.0,55.0,25.0,7.0,0.0,2.0,60.0,26.0,14.0,11.0,67.0,33.0
Assam,Tinsukia,27.53549291139241,95.69055949367085,309,ASSAM,1327929,680231,647698,798322,453449,344873,557196,366623,190573,47756,13241,1181347,48373,76877,1999,16228,837,161718,5135,27948,150893,266717,276292,109805,61040,38152,910252,417081,348,60.0,67.0,952.173599850639,53.0,14.0,52,231,53,42.0,54.0,29.0,12.0,0.0,2.0,60.0,27.0,13.0,11.0,69.0,31.0
Bihar,Araria,26.211528119180603,87.30766554934816,209,BIHAR,2811569,1463333,1348236,1195768,727643,468125,1069893,708391,361502,691947,24367,1593525,1207442,4116,371,187,1910,43290,2561,29796,625357,426625,206161,112955,68177,39627,1485840,1653766,2035,43.0,50.0,921.3459957507963,35.0,15.0,708,1241,55,38.0,48.0,27.0,2.0,0.0,1.0,67.0,22.0,12.0,22.0,53.0,59.0
Bihar,Aurangabad,24.774291867469877,84.45986024096379,235,BIHAR,2540073,1318684,1221389,1466002,868733,597269,837770,599157,238613,426096,40652,2291133,237353,2218,295,334,775,44456,2362,31168,559512,482199,302662,253142,136783,91371,1833998,784131,2215,58.0,66.0,926.218108356513,49.0,17.0,585,1375,211,33.0,45.0,20.0,2.0,0.0,1.0,64.0,22.0,13.0,22.0,72.0,31.0
Bihar,Aurangabad,24.774291867469877,84.45986024096379,515,MAHARASHTRA,3701282,1924469,1776813,2503837,1430936,1072901,1575079,1015864,559215,396630,28033,2545438,786677,15991,5142,309093,30981,589477,23258,69937,381695,686271,422964,537936,310762,253253,2611982,819734,8119,68.0,74.0,923.2744201127687,60.0,14.0,472,3963,1640,43.0,53.0,31.0,16.0,1.0,2.0,60.0,25.0,15.0,10.0,71.0,22.0
Maharashtra,Aurangabad,20.0979228832952,75.32072196796334,235,BIHAR,2540073,1318684,1221389,1466002,868733,597269,837770,599157,238613,426096,40652,2291133,237353,2218,295,334,775,44456,2362,31168,559512,482199,302662,253142,136783,91371,1833998,784131,2215,58.0,66.0,926.218108356513,49.0,17.0,585,1375,211,33.0,45.0,20.0,2.0,0.0,1.0,64.0,22.0,13.0,22.0,72.0,31.0
Maharashtra,Aurangabad,20.0979228832952,75.32072196796334,515,MAHARASHTRA,3701282,1924469,1776813,2503837,1430936,1072901,1575079,1015864,559215,396630,28033,2545438,786677,15991,5142,309093,30981,589477,23258,69937,381695,686271,422964,537936,310762,253253,2611982,819734,8119,68.0,74.0,923.2744201127687,60.0,14.0,472,3963,1640,43.0,53.0,31.0,16.0,1.0,2.0,60.0,25.0,15.0,10.0,71.0,22.0
Bihar,Banka,24.832355642023337,86.8664916342413,225,BIHAR,2034763,1067140,967623,965321,590961,374360,771080,517817,253263,462614,26680,1772655,250925,6138,139,113,94,62359,1704,22300,408188,386707,196305,120653,63103,35767,1214645,879831,1738,47.0,55.0,906.7441947635737,39.0,16.0,510,1089,126,38.0,49.0,26.0,3.0,0.0,1.0,63.0,23.0,14.0,20.0,60.0,43.0
Bihar,Begusarai,25.54302613168723,86.12560144032932,222,BIHAR,2970541,1567660,1402881,1548673,918507,630166,938182,715345,222837,430870,58167,2554330,407348,2209,402,229,276,120373,4644,43127,577601,484502,291877,207136,144783,101836,1822334,1242551,2354,52.0,59.0,894.888560019392,45.0,14.0,751,1476,115,32.0,46.0,16.0,4.0,0.0,1.0,66.0,22.0,12.0,19.0,61.0,42.0
Bihar,Bhagalpur,25.277192885375477,87.04213814229242,224,BIHAR,3037766,1615663,1422103,1573066,937669,635397,983528,740056,243472,475228,60461,2487866,537098,3556,415,180,1050,174534,6764,46929,614644,524322,300767,247079,154643,118843,1976417,1139715,2814,52.0,58.0,880.1977887715445,45.0,13.0,667,1720,315,32.0,46.0,17.0,6.0,0.0,2.0,64.0,22.0,13.0,20.0,65.0,38.0
Bihar,Bhojpur,25.50666439393939,84.49407803030304,231,BIHAR,2728407,1430380,1298027,1599151,973486,625665,822493,640283,182210,364875,47985,2518216,197819,2165,544,647,1472,62153,3661,34658,581580,605307,367059,313509,163303,131137,2172525,1005140,2600,59.0,68.0,907.4700429256561,48.0,20.0,602,1603,317,30.0,45.0,14.0,2.0,0.0,1.0,63.0,22.0,14.0,21.0,80.0,37.0
Bihar,Buxar,25.48593018867924,84.08808081760995,232,BIHAR,1706352,887977,818375,989807,593544,396263,538322,402180,136142,251790,26122,1591454,105423,2125,248,5090,97,46760,1784,19324,331675,420187,256124,178044,89306,64117,1344677,457814,1556,58.0,67.0,921.6173391878393,48.0,19.0,392,966,168,32.0,45.0,17.0,3.0,0.0,1.0,63.0,22.0,15.0,19.0,79.0,27.0
Bihar,Darbhanga,26.146187719298258,85.97387352472099,215,BIHAR,3937385,2059949,1877436,1816634,1125566,691068,1223640,947927,275713,642115,44846,3042729,881476,3534,832,245,236,127442,6280,53205,672797,490534,332382,224622,152540,129597,2028545,2203198,3514,46.0,55.0,911.3992627972829,37.0,18.0,994,2184,276,31.0,46.0,15.0,3.0,0.0,1.0,64.0,22.0,13.0,17.0,52.0,56.0
Bihar,Gaya,24.7266541547278,84.94291217765044,236,BIHAR,4391418,2266566,2124852,2297613,1368803,928810,1664062,1076170,587892,783505,87178,3876395,488121,3943,913,870,1723,112617,6856,57011,902272,757690,447480,342254,191824,131163,2784730,1953368,3998,52.0,60.0,937.4763408610206,44.0,16.0,979,2463,437,38.0,47.0,28.0,3.0,0.0,1.0,64.0,21.0,12.0,21.0,63.0,44.0
Bihar,Gopalganj,26.44874364161851,84.34636127167629,217,BIHAR,2562012,1267666,1294346,1382998,793905,589093,728201,539586,188615,338666,26049,2119262,436057,2463,271,167,133,69375,3707,33596,540603,470828,291624,223776,123249,79109,1736879,977719,2370,54.0,63.0,1021.0465532719186,46.0,17.0,596,1480,263,28.0,43.0,15.0,3.0,0.0,1.0,64.0,21.0,14.0,21.0,68.0,38.0
Bihar,Jamui,24.78418380462726,86.26316298200514,238,BIHAR,1760405,916064,844341,858588,534385,324203,727571,452288,275283,331466,105637,1525746,217621,8443,162,159,87,32633,1839,22414,420472,317612,153973,104211,56137,29633,1085477,765297,1516,49.0,58.0,921.7052520347924,38.0,20.0,396,945,151,41.0,49.0,33.0,2.0,0.0,1.0,65.0,22.0,13.0,24.0,62.0,43.0
Bihar,Jehanabad,25.155679045643165,84.9208124481328,239,BIHAR,1125313,585582,539731,618881,374412,244469,365378,266423,98955,179519,15075,1045117,75742,691,148,248,60,27641,1106,11302,211761,165906,117558,112966,68748,45519,725997,495877,960,55.0,64.0,921.7001205638151,45.0,19.0,248,598,99,32.0,45.0,18.0,2.0,0.0,1.0,63.0,23.0,14.0,19.0,65.0,44.0
Bihar,Katihar,25.56565356037151,87.70466083591326,212,BIHAR,3071029,1600430,1470599,1280190,762256,517934,1013566,760522,253044,672291,20577,1684589,1365645,8659,2754,212,507,60900,2941,27263,472616,444260,237243,133811,88498,57114,1445438,1705551,2516,42.0,48.0,918.8774266915767,35.0,13.0,732,1560,169,33.0,48.0,17.0,2.0,0.0,1.0,67.0,22.0,12.0,15.0,47.0,56.0
Bihar,Khagaria,25.53558891454964,86.56593256351037,223,BIHAR,1666886,883786,783100,768028,461153,306875,560805,398216,162589,325731,20816,1486989,175588,1253,143,79,86,40641,1580,21654,350601,233494,130004,100555,65931,38697,925251,903323,1254,46.0,52.0,886.0742306395439,39.0,13.0,406,780,49,34.0,45.0,21.0,2.0,0.0,1.0,67.0,21.0,12.0,21.0,56.0,54.0
Bihar,Kishanganj,26.324336758321294,87.95045007235886,210,BIHAR,1690400,866970,823430,745056,439921,305135,529064,421192,107872,321867,11633,531236,1149095,5783,398,183,1476,58718,1093,14073,356401,235779,89025,42778,25989,15386,769119,945397,1347,44.0,51.0,949.7791157710186,37.0,14.0,402,834,78,31.0,49.0,13.0,3.0,0.0,1.0,67.0,21.0,11.0,21.0,45.0,56.0
Bihar,Lakhisarai,25.183449321266963,86.12825701357468,227,BIHAR,1000912,526345,474567,507270,305182,202088,326576,240494,86082,159970,13546,956396,40886,487,140,52,78,44491,1186,8862,172076,149312,111684,85807,48001,27261,597955,450967,904,51.0,58.0,901.6272596870873,43.0,15.0,222,557,98,33.0,46.0,18.0,4.0,0.0,1.0,65.0,22.0,13.0,17.0,60.0,45.0
Bihar,Madhepura,25.77341929460581,86.8978443983403,213,BIHAR,2001762,1047559,954203,834577,517666,316911,777546,496046,281500,484062,16347,1753829,241760,1342,170,60,133,23236,1397,23309,340813,189431,114474,99437,79891,44955,875510,1202278,1494,42.0,49.0,910.8823464835871,33.0,16.0,487,936,60,39.0,47.0,30.0,1.0,0.0,1.0,66.0,22.0,12.0,17.0,44.0,60.0
Bihar,Madhubani,26.41380538172716,86.16328360450552,207,BIHAR,4487379,2329313,2158066,2155338,1340085,815253,1636938,1105947,530991,940642,54934,3652168,818912,3262,564,328,442,113281,5319,65548,783888,771417,520875,303114,170563,137780,2698989,2003079,3520,48.0,58.0,926.481756638116,38.0,20.0,1090,2203,198,36.0,47.0,25.0,3.0,0.0,1.0,64.0,22.0,14.0,17.0,60.0,45.0
Bihar,Munger,25.198537962962963,86.54173672839504,226,BIHAR,1367765,729041,638724,801817,473741,328076,426658,327453,99205,196449,16690,1252319,110416,1815,338,95,145,90461,2653,17946,226699,158699,146414,147152,101907,64469,849734,498676,1424,59.0,65.0,876.1153350771767,51.0,14.0,287,861,199,31.0,45.0,16.0,7.0,0.0,1.0,63.0,23.0,14.0,17.0,62.0,36.0
Bihar,Muzaffarpur,26.18664417177915,85.32745092024543,216,BIHAR,4801062,2527497,2273565,2509232,1487117,1022115,1547586,1195308,352278,769001,65253,4032773,745546,5149,933,288,382,180651,10290,73012,1092952,743623,419433,299475,194920,138916,2903794,1924438,4105,52.0,59.0,899.5322249640652,45.0,14.0,1064,2547,414,32.0,47.0,15.0,4.0,0.0,2.0,63.0,22.0,15.0,23.0,60.0,40.0
Bihar,Nalanda,25.229345508982053,85.48053113772461,229,BIHAR,2877653,1497060,1380593,1519933,919558,600375,1045420,703405,342015,534021,52585,2669775,198033,1978,393,414,561,101378,4156,43848,581978,486266,320839,274556,177358,133032,1985188,1324385,2578,53.0,61.0,922.2028509211387,43.0,18.0,624,1587,286,36.0,47.0,25.0,4.0,0.0,2.0,64.0,22.0,14.0,20.0,69.0,46.0
Bihar,Nawada,24.825708836206903,85.61594568965519,237,BIHAR,2219146,1144668,1074478,1091012,659474,431538,817041,539439,277602,397505,40018,1964620,244394,1299,250,176,279,31162,1841,28411,601011,368649,195072,161127,95943,64585,1489517,1091439,1924,49.0,58.0,938.6809100979499,40.0,18.0,561,1194,130,37.0,47.0,26.0,1.0,0.0,1.0,65.0,22.0,13.0,27.0,67.0,49.0
Bihar,Pashchim Champaran,27.16064352201258,84.30265911949685,203,BIHAR,3935042,2061110,1873932,1759481,1091226,668255,1478947,999282,479665,998833,38691,3047427,865090,8469,926,1337,296,57546,3495,41143,1053481,543965,250243,159563,98732,70669,2182688,1710878,3181,45.0,53.0,909.1858270543543,36.0,17.0,935,1968,199,38.0,48.0,26.0,1.0,0.0,1.0,65.0,23.0,13.0,27.0,55.0,43.0
Bihar,Patna,25.40297114503818,85.3198433587787,230,BIHAR,5838465,3078512,2759953,3459679,2028047,1431632,1881886,1436411,445475,658203,85349,5356075,439952,12551,4803,1062,2151,546859,40692,132582,1244842,1095655,920051,698351,463361,452340,4920726,2590473,7065,59.0,66.0,896.5217611625357,52.0,14.0,1091,4202,1297,32.0,47.0,16.0,9.0,1.0,2.0,62.0,24.0,14.0,21.0,84.0,44.0
Bihar,Purba Champaran,26.68129336734693,85.00382155612242,204,BIHAR,5099371,2681209,2418162,2276957,1407603,869354,1737539,1260774,476765,1057417,46164,4086453,990349,4865,668,878,464,74979,7719,70258,1280809,982506,450631,241118,121594,68781,3150588,2142757,4098,45.0,52.0,901.8923925736487,36.0,16.0,1194,2551,288,34.0,47.0,20.0,1.0,0.0,1.0,65.0,22.0,13.0,25.0,62.0,42.0
Bihar,Purnia,25.81714801901739,87.40447606973065,211,BIHAR,3264619,1699370,1565249,1332326,805261,527065,1143318,803275,340043,745015,28840,1989420,1255641,7989,614,353,1450,86058,4170,33664,668690,360243,184327,119259,83226,59996,1486857,1798786,2641,41.0,47.0,921.0760458287482,34.0,13.0,822,1636,126,35.0,47.0,22.0,3.0,0.0,1.0,66.0,21.0,11.0,20.0,46.0,55.0
Bihar,Rohtas,24.99170460829495,83.9350762672811,234,BIHAR,2959918,1543546,1416372,1799832,1061783,738049,924879,707939,216940,405544,48512,2645415,300487,2889,2569,1584,252,114893,4594,36279,535187,548971,399053,333053,194928,161555,2188753,876443,1555,61.0,69.0,917.609193376809,52.0,17.0,299,951,233,31.0,46.0,15.0,4.0,0.0,1.0,63.0,23.0,14.0,18.0,74.0,30.0
Bihar,Saharsa,25.821270696721303,86.54670819672135,214,BIHAR,1900661,997174,903487,804996,506374,298622,649898,456724,193174,356833,18651,1629254,266620,1292,197,60,109,41342,1668,19415,348300,194897,104182,90182,64560,47051,855188,1151349,1582,42.0,51.0,906.0474902073258,33.0,18.0,464,983,107,34.0,46.0,21.0,2.0,0.0,1.0,66.0,22.0,12.0,18.0,45.0,61.0
Bihar,Samastipur,25.793205563909765,85.94833323308269,221,BIHAR,4261566,2230003,2031563,2142880,1293575,849305,1343400,1037576,305824,721629,47917,3800598,452370,2126,554,292,231,88021,5379,50918,781038,710468,438908,284082,186153,129933,2549708,1996651,3500,50.0,58.0,911.0135726274807,42.0,16.0,1005,2195,277,32.0,47.0,15.0,2.0,0.0,1.0,65.0,21.0,13.0,18.0,60.0,47.0
Bihar,Saran,25.89656077844312,84.82266287425155,219,BIHAR,3951862,2022821,1929041,2157454,1285767,871687,1040231,857660,182571,493461,42103,3534772,406449,2330,371,229,322,94787,4509,37442,793945,693465,433759,361171,213251,148065,2653504,1313700,3667,55.0,64.0,953.6390021657872,45.0,19.0,892,2279,426,26.0,42.0,9.0,2.0,0.0,1.0,64.0,21.0,15.0,20.0,67.0,33.0
Bihar,Sheikhpura,25.12472436548223,85.77839390862943,228,BIHAR,636342,329743,306599,328676,196431,132245,224655,151569,73086,109696,9917,596102,37653,313,75,41,43,20065,631,8873,129673,110525,59529,52860,33856,19676,409518,305609,565,52.0,60.0,929.8120051070076,43.0,17.0,153,347,47,35.0,46.0,24.0,3.0,0.0,1.0,65.0,22.0,13.0,20.0,64.0,48.0
Bihar,Sheohar,26.458380748663107,85.29539411764709,205,BIHAR,656246,346673,309573,283698,171645,112053,216372,166693,49679,136334,9119,552492,99342,522,216,73,52,10004,478,6698,128209,91277,37063,25657,16031,10091,308989,348078,489,43.0,50.0,892.9827243540743,36.0,14.0,173,301,9,33.0,48.0,16.0,2.0,0.0,1.0,64.0,21.0,14.0,20.0,47.0,53.0
Bihar,Sitamarhi,26.56570069686413,85.61172491289203,206,BIHAR,3423574,1803252,1620322,1436794,885188,551606,1114583,865929,248654,635907,37932,2672311,740101,2897,261,253,188,66263,3460,42461,733380,394422,196321,136500,92783,70549,1635891,1852765,2679,42.0,49.0,898.5554986213796,34.0,15.0,866,1670,108,33.0,48.0,15.0,2.0,0.0,1.0,64.0,22.0,13.0,21.0,48.0,54.0
Bihar,Siwan,26.1736372013652,84.33766552901022,218,BIHAR,3330464,1675090,1655374,1930175,1115906,814269,932416,730396,202020,376344,31244,2712635,608282,2618,369,407,359,52935,3834,37833,689880,612635,445257,355277,186817,119164,2421121,1207119,3014,58.0,67.0,988.2298861553708,49.0,18.0,734,1888,359,28.0,44.0,12.0,2.0,0.0,1.0,64.0,21.0,15.0,21.0,73.0,36.0
Bihar,Supaul,26.28157893772896,86.78496465201461,208,BIHAR,2229076,1155283,1073793,1033283,647672,385611,877682,551718,325964,554271,22555,1809936,409251,3758,271,136,546,51028,1845,25078,467768,269737,157787,99530,69665,45726,1116063,1220268,1836,46.0,56.0,929.4631704958871,36.0,20.0,533,1147,134,39.0,48.0,30.0,2.0,0.0,1.0,65.0,22.0,12.0,21.0,50.0,55.0
Bihar,Vaishali,25.8134703180212,85.39247597173153,220,BIHAR,3495021,1844535,1650486,1926740,1152576,774164,1060344,858648,201696,502637,36958,3152346,333980,2203,707,362,246,70001,4810,39564,810191,487594,370247,291392,178320,124448,2271286,1479152,2930,55.0,62.0,894.7978758874187,47.0,15.0,773,1827,287,30.0,47.0,12.0,2.0,0.0,1.0,62.0,22.0,14.0,23.0,65.0,42.0
Chandigarh,Chandigarh,30.7426,76.75872465753424,55,CHANDIGARH,1055450,580663,474787,805438,465346,340092,404136,328159,75977,1687,4799,852574,51447,8720,138329,1160,1960,231204,44283,78113,80406,118667,114209,124707,98786,174528,731491,184265,34145,76.0,80.0,817.6636017793454,72.0,8.0,893,10783,14626,38.0,57.0,16.0,22.0,4.0,7.0,57.0,29.0,14.0,8.0,69.0,17.0
Chhattisgarh,Bastar,19.393866751269048,81.52895126903546,414,CHHATTISGARH,1413199,698487,714712,650863,382335,268528,726531,404364,322167,287828,10821,1277975,12413,27951,2099,985,3466,157646,1782,9042,183667,178766,139330,60936,57413,32895,656234,729550,1529,46.0,55.0,1023.2287787746945,38.0,17.0,353,1028,105,51.0,58.0,45.0,11.0,0.0,1.0,61.0,25.0,13.0,13.0,46.0,52.0
Chhattisgarh,Bilaspur,22.356942982456143,81.99770350877188,30,HIMACHAL PRADESH,381956,192764,189192,287620,155599,132021,205871,111543,94328,4138,2561,371973,6984,236,2387,113,10,79146,1574,6281,35817,59489,53515,64730,45695,25474,287961,65864,3666,75.0,81.0,981.469569006661,70.0,11.0,528,1885,564,54.0,58.0,50.0,21.0,0.0,2.0,51.0,28.0,21.0,9.0,75.0,17.0
Chhattisgarh,Bilaspur,22.356942982456143,81.99770350877188,406,CHHATTISGARH,2663629,1351574,1312055,1596560,932474,664086,1203197,715467,487730,572292,21658,2540763,57973,20745,6373,2979,2357,519704,8566,30892,382091,407692,337793,189296,152838,134637,1624001,943112,2981,60.0,69.0,970.7607574576012,51.0,18.0,477,1822,509,45.0,53.0,37.0,20.0,0.0,1.0,61.0,25.0,14.0,14.0,61.0,35.0
Himachal Pradesh,Bilaspur,31.3780422907489,76.65316079295157,30,HIMACHAL PRADESH,381956,192764,189192,287620,155599,132021,205871,111543,94328,4138,2561,371973,6984,236,2387,113,10,79146,1574,6281,35817,59489,53515,64730,45695,25474,287961,65864,3666,75.0,81.0,981.469569006661,70.0,11.0,528,1885,564,54.0,58.0,50.0,21.0,0.0,2.0,51.0,28.0,21.0,9.0,75.0,17.0
Himachal Pradesh,Bilaspur,31.3780422907489,76.65316079295157,406,CHHATTISGARH,2663629,1351574,1312055,1596560,932474,664086,1203197,715467,487730,572292,21658,2540763,57973,20745,6373,2979,2357,519704,8566,30892,382091,407692,337793,189296,152838,134637,1624001,943112,2981,60.0,69.0,970.7607574576012,51.0,18.0,477,1822,509,45.0,53.0,37.0,20.0,0.0,1.0,61.0,25.0,14.0,14.0,61.0,35.0
Chhattisgarh,Dhamtari,20.554912627291245,81.7569195519348,412,CHHATTISGARH,799781,397897,401884,546833,303924,242909,402895,226382,176513,182602,7310,777188,10425,2644,1196,667,3612,148926,1016,4804,143128,148544,120146,65196,58875,31319,572304,214637,782,68.0,76.0,1010.0201811021445,60.0,16.0,198,496,55,50.0,57.0,44.0,19.0,0.0,1.0,58.0,27.0,16.0,18.0,72.0,27.0
Chhattisgarh,Durg,21.194463849287164,81.33181639511197,409,CHHATTISGARH,3343872,1682101,1661771,2303378,1284612,1018766,1496805,921729,575076,560415,22565,3129745,83499,24304,24276,19587,17209,614109,16141,51289,463598,573291,497668,309508,286244,202424,2363288,823501,4209,69.0,76.0,987.9139243125115,61.0,15.0,649,2533,672,45.0,55.0,35.0,18.0,0.0,2.0,57.0,27.0,16.0,14.0,71.0,25.0
Chhattisgarh,Jashpur,22.77286167664669,83.8703962075848,402,CHHATTISGARH,851669,424747,426922,495415,280656,214759,487360,263645,223715,197558,7553,629509,15336,189588,474,467,694,76783,567,5755,120768,137681,127299,64188,50562,26161,529825,328438,856,58.0,66.0,1005.1206953786607,50.0,16.0,196,588,62,57.0,62.0,52.0,9.0,0.0,1.0,57.0,25.0,17.0,14.0,62.0,39.0
Chhattisgarh,Korba,22.491712499999995,82.57604326923074,404,CHHATTISGARH,1206640,612915,593725,748759,433391,315368,521186,333329,187857,221806,7899,1133176,30195,21059,3666,897,753,202380,4544,18004,178191,188303,168387,89167,83166,61215,780221,410186,1565,62.0,71.0,968.6906014700244,53.0,18.0,246,937,239,43.0,54.0,32.0,17.0,0.0,1.0,60.0,26.0,14.0,15.0,65.0,34.0
Chhattisgarh,Koriya,23.50412776859501,82.12515636363635,400,CHHATTISGARH,658917,334737,324180,397823,229923,167900,307071,185483,121588,94648,4830,604259,25878,9398,1391,84,1155,80023,1667,7609,143413,109639,87969,47127,38677,26802,457761,179639,852,60.0,69.0,968.4618073293361,52.0,17.0,146,529,119,47.0,55.0,38.0,12.0,0.0,1.0,61.0,25.0,14.0,22.0,69.0,27.0
Chhattisgarh,Mahasamund,21.223727037773354,82.65925427435384,411,CHHATTISGARH,1032754,511967,520787,637963,364089,273874,499260,291858,207402,278073,6135,1008061,12570,5284,2941,521,1495,212487,961,5614,179770,194739,152183,78583,57949,33357,702532,384764,964,62.0,71.0,1017.2276728773535,53.0,18.0,232,642,51,48.0,57.0,40.0,21.0,0.0,1.0,56.0,26.0,17.0,17.0,68.0,37.0
Chhattisgarh,Raigarh,22.008265068493166,83.27797698630134,403,CHHATTISGARH,1493984,750278,743706,951639,542756,408883,690167,429211,260956,323788,9959,1422986,17332,47653,2117,781,409,297308,3342,13857,246480,260661,210964,130700,93340,66358,1017307,460166,1575,64.0,72.0,991.240580158288,55.0,17.0,325,1040,154,46.0,57.0,35.0,20.0,0.0,1.0,56.0,27.0,17.0,16.0,68.0,31.0
Chhattisgarh,Raigarh,22.008265068493166,83.27797698630134,520,MAHARASHTRA,2634200,1344345,1289855,1939994,1059692,880302,1072969,753843,319126,191182,32919,2239370,227465,17452,7477,121791,12260,547206,38570,96301,231263,407662,335886,441072,221410,204507,1861740,482420,6097,74.0,79.0,959.4672498502988,68.0,11.0,279,3173,1452,41.0,56.0,25.0,21.0,1.0,4.0,54.0,28.0,18.0,9.0,71.0,18.0
Maharashtra,Raigarh,18.453257637845976,73.0090609418579,403,CHHATTISGARH,1493984,750278,743706,951639,542756,408883,690167,429211,260956,323788,9959,1422986,17332,47653,2117,781,409,297308,3342,13857,246480,260661,210964,130700,93340,66358,1017307,460166,1575,64.0,72.0,991.240580158288,55.0,17.0,325,1040,154,46.0,57.0,35.0,20.0,0.0,1.0,56.0,27.0,17.0,16.0,68.0,31.0
Maharashtra,Raigarh,18.453257637845976,73.0090609418579,520,MAHARASHTRA,2634200,1344345,1289855,1939994,1059692,880302,1072969,753843,319126,191182,32919,2239370,227465,17452,7477,121791,12260,547206,38570,96301,231263,407662,335886,441072,221410,204507,1861740,482420,6097,74.0,79.0,959.4672498502988,68.0,11.0,279,3173,1452,41.0,56.0,25.0,21.0,1.0,4.0,54.0,28.0,18.0,9.0,71.0,18.0
Chhattisgarh,Raipur,20.88603153846152,82.20032759615388,410,CHHATTISGARH,4063872,2048186,2015686,2629749,1493158,1136591,1757664,1099964,657700,708993,34078,3881485,103038,23181,16707,8397,17137,728556,20261,59523,618508,664470,552373,313247,267265,227382,2674728,1247434,4561,65.0,73.0,984.1323004844287,56.0,17.0,716,2775,744,43.0,54.0,33.0,18.0,0.0,1.0,60.0,26.0,14.0,15.0,66.0,31.0
Chhattisgarh,Surguja,23.32719278728607,83.23582493887531,401,CHHATTISGARH,2359886,1193129,1166757,1187941,694686,493255,1155807,649888,505919,523356,12643,2126195,81442,97432,2303,1287,623,253131,2737,18983,364452,338509,281260,135374,105992,64607,1299718,991866,2462,50.0,58.0,977.8967739448124,42.0,16.0,530,1671,217,49.0,54.0,43.0,11.0,0.0,1.0,61.0,24.0,15.0,15.0,55.0,42.0
Daman and Diu,Daman,20.431616666666677,72.8392366071429,495,DAMAN AND DIU,191173,124659,66514,150348,104316,46032,105521,94502,11019,481,409,171537,16087,2618,169,216,244,49249,1316,4543,8957,28094,30406,26991,14170,9128,119741,20641,34145,79.0,84.0,533.5675723373362,69.0,15.0,893,10783,14626,55.0,76.0,17.0,26.0,1.0,2.0,64.0,28.0,8.0,5.0,63.0,11.0
Daman and Diu,Junagadh,20.72568199498111,70.83985639899612,479,GUJARAT,2743082,1404356,1338726,1842818,1046981,795837,1123709,801859,321850,333996,9645,2397056,334858,2586,1110,1291,3841,498326,6628,26991,271762,700258,294811,311849,137505,139957,1886269,669022,5549,67.0,75.0,953.2668354747657,59.0,16.0,419,2976,1194,41.0,57.0,24.0,18.0,0.0,1.0,56.0,27.0,17.0,10.0,69.0,24.0
Gujarat,Junagadh,20.929523011609785,70.54733890140345,479,GUJARAT,2743082,1404356,1338726,1842818,1046981,795837,1123709,801859,321850,333996,9645,2397056,334858,2586,1110,1291,3841,498326,6628,26991,271762,700258,294811,311849,137505,139957,1886269,669022,5549,67.0,75.0,953.2668354747657,59.0,16.0,419,2976,1194,41.0,57.0,24.0,18.0,0.0,1.0,56.0,27.0,17.0,10.0,69.0,24.0
Goa,North Goa,15.548723418714054,73.80667997909038,585,GOA,818008,416677,401331,663060,351738,311322,327658,239125,88533,14120,8862,622213,57941,134169,618,553,546,173951,23440,56266,40968,101521,148792,153887,87513,86781,636063,99538,2078,81.0,84.0,963.1705133712684,78.0,6.0,122,900,679,40.0,57.0,22.0,21.0,3.0,7.0,47.0,32.0,21.0,5.0,78.0,12.0
Goa,South Goa,15.195278658183785,73.941792596877,586,GOA,640537,322463,318074,502427,264085,238342,249590,180411,69179,12640,5846,341664,63623,231961,855,542,563,138810,17624,44299,29874,73039,119869,108989,64786,57460,463596,88577,1646,78.0,82.0,986.3891361179423,75.0,7.0,87,689,564,39.0,56.0,22.0,22.0,3.0,7.0,49.0,30.0,20.0,5.0,72.0,14.0
Gujarat,Ahmadabad,22.605425564971743,72.23898135593227,474,GUJARAT,7214225,3788051,3426174,5435760,3025463,2410297,2594952,2127547,467405,268954,54876,6042416,883238,50754,14542,4518,209287,1456046,126341,273651,761358,1614370,805199,1135058,549188,839295,5805299,1129562,18633,75.0,80.0,904.4688152297844,70.0,10.0,614,7742,7018,36.0,56.0,14.0,20.0,2.0,4.0,55.0,28.0,17.0,11.0,80.0,16.0
Gujarat,Amreli,21.04832649310872,71.43457637825426,480,GUJARAT,1514190,771049,743141,995459,558180,437279,657139,453642,203497,209935,6083,1410463,99105,919,415,243,2053,273331,2538,12765,230474,412251,120625,149478,66785,50999,1039194,380595,2825,66.0,72.0,963.805153758062,59.0,13.0,225,1556,573,43.0,59.0,27.0,18.0,0.0,1.0,55.0,26.0,19.0,15.0,69.0,25.0
Gujarat,Anand,22.282718206229863,72.57782051557454,482,GUJARAT,2092745,1087224,1005521,1551253,874481,676772,844794,627561,217233,346329,16460,1798794,250919,29789,1524,267,8591,378310,9902,32523,257524,560542,229013,283571,127459,110351,1588947,360506,4372,74.0,80.0,924.8517324856699,67.0,13.0,261,2246,1245,40.0,58.0,22.0,18.0,0.0,2.0,54.0,28.0,18.0,12.0,76.0,17.0
Gujarat,Banas Kantha,24.258538965517253,71.93205252873561,469,GUJARAT,3120506,1610379,1510127,1704923,1048402,656521,1248600,836268,412332,350541,11812,2890305,213505,1686,486,281,12659,396873,3424,23149,366867,859436,159433,226765,105372,66950,1799274,1207376,4242,55.0,65.0,937.7463317641375,43.0,22.0,479,2497,581,40.0,52.0,27.0,13.0,0.0,1.0,64.0,24.0,13.0,12.0,58.0,39.0
Gujarat,Bharuch,21.75787276237761,72.67326346710801,488,GUJARAT,1551019,805707,745312,1118276,623047,495229,627124,468919,158205,253577,8902,1188204,343511,9494,1733,442,4813,309091,10257,29531,161675,367060,164765,188539,83895,74380,1056350,273829,3242,72.0,77.0,925.0409888458211,66.0,11.0,213,1704,854,40.0,58.0,21.0,20.0,1.0,2.0,54.0,29.0,16.0,10.0,68.0,18.0
Gujarat,Bhavnagar,21.70219390341736,72.16272632761141,481,GUJARAT,2880365,1490201,1390164,1887255,1087371,799884,1150632,838781,311851,334025,17996,2632574,212863,3457,1410,445,26974,500757,7297,28925,422461,929286,266953,281250,96241,93391,2103528,508664,5434,66.0,73.0,932.8701295999667,58.0,15.0,359,2760,1350,40.0,56.0,22.0,17.0,0.0,1.0,59.0,25.0,15.0,15.0,73.0,18.0
Gujarat,Gandhinagar,23.193679790026252,72.67221679790026,473,GUJARAT,1391753,723864,667889,1030494,582686,447808,534976,408075,126901,129356,8600,1319586,57273,3237,1985,497,6405,262539,12107,33662,136131,363156,133594,196456,95730,108400,1049555,246993,6016,74.0,80.0,922.6719383751644,67.0,13.0,460,3180,1317,38.0,56.0,19.0,19.0,1.0,2.0,55.0,28.0,16.0,10.0,75.0,18.0
Gujarat,Jamnagar,22.410600414263328,69.62062005768233,477,GUJARAT,2160119,1114192,1045927,1396534,795140,601394,847440,646822,200618,147193,11359,1810443,320805,4392,1873,1086,18856,386538,11573,30384,255785,491009,194057,199634,74029,87523,1320610,502873,5028,65.0,71.0,938.7313856139697,57.0,14.0,268,2421,1488,39.0,58.0,19.0,18.0,1.0,1.0,57.0,27.0,17.0,12.0,61.0,23.0
Gujarat,Kachchh,23.48057203301311,68.82192301497916,468,GUJARAT,2092371,1096737,995634,1252319,739239,513080,776228,624704,151524,183971,10802,1608921,442355,6192,6353,490,25312,403294,9631,31961,246956,469402,141345,157284,61366,60386,1150801,581952,4146,60.0,67.0,907.8147267758816,52.0,15.0,197,2026,1398,37.0,57.0,15.0,19.0,0.0,2.0,61.0,25.0,14.0,12.0,55.0,28.0
Gujarat,Kheda,22.88765312500002,73.018803515625,483,GUJARAT,2299885,1185727,1114158,1660243,942480,717763,933983,674586,259397,359842,12455,2000884,264482,26629,1403,300,3479,372226,5710,24502,295057,641541,250044,310341,148530,84223,1749234,482078,4252,72.0,79.0,939.6412496299739,64.0,15.0,320,2315,983,41.0,57.0,23.0,16.0,0.0,1.0,55.0,27.0,17.0,13.0,76.0,21.0
Gujarat,Mahesana,23.529355452865065,72.45545194085031,471,GUJARAT,2035064,1056520,978544,1502645,847499,655146,812064,588699,223365,242969,10282,1885732,136431,1954,1082,146,7087,385609,7759,33731,260278,467128,183468,266108,139208,130723,1474304,434497,3648,74.0,80.0,926.1954340665582,67.0,13.0,296,2016,740,40.0,56.0,23.0,19.0,0.0,2.0,55.0,27.0,18.0,13.0,72.0,21.0
Gujarat,Narmada,21.70666386292833,73.68403208722742,487,GUJARAT,590297,301086,289211,370336,211767,158569,294795,174282,120513,188030,2594,559848,22600,4413,147,80,373,101940,576,4081,76197,146661,58188,52687,28396,14748,380328,192780,979,63.0,70.0,960.5594414884783,55.0,15.0,100,589,125,50.0,58.0,42.0,17.0,0.0,1.0,57.0,27.0,16.0,13.0,64.0,33.0
Gujarat,Navsari,20.866973318871995,72.86184869848157,490,GUJARAT,1329672,678165,651507,1001909,539471,462438,591834,407881,183953,206608,7173,1225087,78669,5733,2459,601,13386,267679,6726,24397,145678,266733,140235,190861,112460,85041,967020,261956,3256,75.0,80.0,960.6909822830727,71.0,9.0,164,1631,1051,45.0,60.0,28.0,20.0,1.0,2.0,51.0,29.0,19.0,11.0,73.0,20.0
Gujarat,Panch Mahals,22.80435606837605,73.61984598290586,484,GUJARAT,2390776,1226961,1163815,1440805,858054,582751,1097507,673565,423942,376038,10771,2220974,158513,2863,662,337,5236,398937,3456,19753,255905,601358,205420,283648,139773,71810,1575872,781582,3981,60.0,70.0,948.5346315001048,50.0,20.0,395,2346,562,46.0,55.0,36.0,17.0,0.0,1.0,59.0,25.0,15.0,11.0,66.0,33.0
Gujarat,Patan,23.80634198473284,71.75162977099237,470,GUJARAT,1343734,694397,649337,837913,494631,343282,554830,383074,171756,227080,6392,1194745,142797,916,337,66,3602,223424,2231,12870,168990,364667,78731,129584,57494,46355,856932,452891,2199,62.0,71.0,935.1091666582661,53.0,18.0,205,1238,374,41.0,55.0,26.0,17.0,0.0,1.0,59.0,25.0,16.0,13.0,64.0,34.0
Gujarat,Porbandar,21.55092351651571,69.71896987722886,478,GUJARAT,585449,300209,285240,393678,221621,172057,231169,174118,57051,48964,2371,549749,33565,500,248,91,515,117040,1653,5639,50588,150643,71637,63458,25119,22458,389163,137119,1463,67.0,74.0,950.1380704775672,60.0,14.0,74,694,460,39.0,58.0,20.0,20.0,0.0,1.0,54.0,28.0,18.0,9.0,66.0,23.0
Gujarat,Rajkot,22.40603377715488,70.83679439383323,476,GUJARAT,3804558,1974445,1830113,2725056,1514075,1210981,1479050,1159480,319570,214285,23780,3397406,361388,5478,1918,1170,33591,747352,21785,67370,383780,913928,402240,540278,204306,266295,2740751,738660,8498,72.0,77.0,926.8999642937636,66.0,11.0,455,4031,2494,39.0,59.0,17.0,20.0,1.0,2.0,55.0,28.0,17.0,10.0,72.0,19.0
Gujarat,Sabar Kantha,23.71803594548552,73.13638790459964,472,GUJARAT,2428589,1244231,1184358,1578734,918625,660109,1084878,681435,403443,333867,10909,2260560,148563,6375,614,168,11110,438606,5262,25425,214062,597667,211423,333650,198963,110817,1691327,665058,3934,65.0,74.0,951.8795143345569,56.0,18.0,395,2347,540,45.0,55.0,34.0,18.0,0.0,1.0,57.0,26.0,17.0,9.0,70.0,27.0
Gujarat,Surat,21.25761372772093,72.93488716344339,492,GUJARAT,6081322,3402224,2679098,4571410,2687468,1883942,2553542,2142819,410723,325739,42040,5260193,660772,21052,5703,12902,112835,1252452,55694,149331,566242,1332690,807021,896927,433651,379505,4495898,942150,16368,75.0,79.0,787.4549118458984,70.0,9.0,712,7398,5164,42.0,63.0,15.0,21.0,1.0,2.0,59.0,29.0,12.0,9.0,74.0,15.0
Gujarat,Surendranagar,22.82672007299272,71.48358740875906,475,GUJARAT,1756268,909917,846351,1093626,643221,450405,723500,504038,219462,270861,9518,1620282,109681,1419,512,312,22992,302068,2975,15309,234873,482679,165406,172947,61164,58389,1189959,493427,3227,62.0,71.0,930.1408809814523,53.0,18.0,286,1777,592,41.0,55.0,26.0,17.0,0.0,1.0,59.0,25.0,16.0,13.0,68.0,28.0
Gujarat,The Dangs,20.801633877551023,73.6883518367347,489,GUJARAT,228291,113821,114470,140968,77314,63654,118257,61329,56928,40486,1172,203545,3593,20029,69,32,39,29794,137,1393,43639,59954,17736,14872,7560,3490,149466,91160,325,62.0,68.0,1005.7019354952075,56.0,12.0,43,206,27,52.0,54.0,50.0,13.0,0.0,1.0,64.0,23.0,13.0,19.0,65.0,40.0
Gujarat,Vadodara,22.26133739279589,73.49433010291594,486,GUJARAT,4165626,2153736,2011890,2893080,1614087,1278993,1693473,1233312,460161,570361,17680,3713941,384579,23813,9340,2069,27650,798277,53606,117818,396624,865726,457662,504732,268451,314960,2868332,910219,9753,69.0,75.0,934.1395602803686,64.0,11.0,473,4617,3173,41.0,57.0,23.0,19.0,1.0,3.0,53.0,29.0,18.0,10.0,69.0,22.0
Gujarat,Valsad,20.44238231644259,72.9148584798345,491,GUJARAT,1705678,887222,818456,1170657,655528,515129,743245,516188,227057,183025,11833,1571147,94034,19661,1589,913,13809,329218,11020,31285,165459,303197,171712,212318,123281,90912,1093866,405928,3316,69.0,74.0,922.4929048197633,63.0,11.0,223,1728,854,44.0,58.0,28.0,19.0,1.0,2.0,55.0,28.0,15.0,10.0,64.0,24.0
Haryana,Ambala,30.3503672316384,76.94970310734456,70,HARYANA,1128350,598703,529647,818025,461288,356737,372139,320120,52019,57293,15753,955096,22143,3705,138202,381,4845,199681,12899,32767,89558,170110,161844,163544,97980,91472,793235,222031,2781,72.0,77.0,884.6573342709156,67.0,10.0,100,1113,977,33.0,53.0,10.0,18.0,1.0,3.0,55.0,27.0,18.0,8.0,70.0,20.0
Haryana,Bhiwani,28.728868064516128,76.02110225806452,81,HARYANA,1634445,866672,767773,1069871,643158,426713,623006,430678,192328,103788,14855,1611031,15515,873,2401,254,1016,266244,5292,25236,186145,223049,198307,218631,148995,104875,1093788,459364,3349,65.0,74.0,885.8864714678679,56.0,18.0,150,1384,976,38.0,50.0,25.0,16.0,0.0,2.0,59.0,25.0,16.0,11.0,67.0,28.0
Haryana,Faridabad,28.14873109756098,77.32718536585368,88,HARYANA,1809733,966110,843623,1272739,734940,537799,579229,476933,102296,29288,32286,1588407,161680,9743,34572,640,4883,333171,43437,82673,137902,220384,198551,282666,178846,259933,1306146,346567,5080,70.0,76.0,873.2163004212771,64.0,12.0,156,2050,1789,32.0,49.0,12.0,18.0,2.0,5.0,61.0,27.0,13.0,8.0,72.0,19.0
Haryana,Fatehabad,29.57298318584072,75.54608716814157,78,HARYANA,942011,495360,446651,557578,327471,230107,369083,263498,105585,97997,6558,779243,8360,996,150969,171,1172,153301,3210,13142,103541,136663,99948,93526,61476,37741,542399,344534,1854,59.0,66.0,901.6694928940568,52.0,14.0,89,774,504,39.0,53.0,24.0,16.0,0.0,1.0,59.0,25.0,16.0,11.0,58.0,37.0
Haryana,Gurgaon,28.043894789579163,77.01935130260523,86,HARYANA,1514432,816690,697742,1111116,638666,472450,544716,432456,112260,27097,18228,1408801,70842,9725,15097,944,7451,305751,67087,102343,126920,177453,175370,219200,150120,233402,1123831,263720,3107,73.0,78.0,854.3535490822711,68.0,10.0,85,1118,1372,36.0,53.0,16.0,20.0,4.0,7.0,58.0,28.0,14.0,8.0,74.0,17.0
Haryana,Hisar,29.23628731117825,75.84324682779452,80,HARYANA,1743931,931562,812369,1114311,670200,444111,691621,488321,203300,144213,16097,1701061,21650,1945,12270,334,3620,285004,10132,33400,197303,230074,194595,202792,144626,105346,1093767,505251,3642,64.0,72.0,872.05038419343,55.0,17.0,167,1518,1017,40.0,52.0,25.0,16.0,1.0,2.0,58.0,26.0,15.0,11.0,63.0,29.0
Haryana,Jhajjar,28.59651868131869,76.61137142857145,83,HARYANA,958405,514667,443738,676091,399480,276611,326534,250020,76514,44845,9254,945693,8247,734,1042,105,645,168558,5034,19241,90737,109829,115794,145258,97457,58826,627288,201028,2169,71.0,78.0,862.1846747508583,62.0,16.0,81,859,784,34.0,49.0,17.0,18.0,1.0,2.0,57.0,26.0,17.0,9.0,65.0,21.0
Haryana,Jind,29.45149821958457,76.29598575667653,77,HARYANA,1334152,713006,621146,832758,502049,330709,523422,368277,155145,102071,9114,1276669,23016,889,29103,172,2594,222462,5263,23750,136892,185626,151682,154773,107994,64599,815843,419624,2674,62.0,70.0,871.1651795356561,53.0,17.0,131,1122,708,39.0,52.0,25.0,17.0,0.0,2.0,59.0,25.0,16.0,10.0,61.0,31.0
Haryana,Kaithal,29.96068539094649,76.37698930041155,73,HARYANA,1074304,571003,503301,646529,385782,260747,373899,292696,81203,85651,9450,974520,8232,1769,87558,265,351,187349,3724,15301,119345,158239,124682,117753,82297,51043,662470,369869,2046,60.0,68.0,881.4331973737442,52.0,16.0,100,855,552,35.0,51.0,16.0,17.0,0.0,1.0,59.0,25.0,16.0,11.0,62.0,34.0
Haryana,Karnal,29.703200647249204,76.87488025889972,74,HARYANA,1505324,797712,707612,978013,564516,413497,516062,411646,104416,133723,15311,1341002,31650,2049,126207,532,1516,267223,11163,29253,155839,231354,188040,183590,124790,101387,1004186,429220,3368,65.0,71.0,887.0519686302825,58.0,13.0,146,1388,1002,34.0,52.0,15.0,18.0,1.0,2.0,59.0,25.0,16.0,10.0,67.0,29.0
Haryana,Kurukshetra,30.05652659846548,76.78774680306903,72,HARYANA,964655,510976,453679,646893,370828,276065,336780,268556,68224,85890,6726,805175,15970,1943,140395,214,375,171908,7356,21951,94530,145392,118107,120790,81964,71007,642789,266638,2137,67.0,73.0,887.8675319388778,61.0,12.0,83,864,712,35.0,53.0,15.0,18.0,1.0,2.0,57.0,26.0,17.0,10.0,67.0,28.0
Haryana,Mahendragarh,28.1352161458333,76.14018072916659,84,HARYANA,922088,486665,435423,630255,380440,249815,338584,232935,105649,38320,7639,913251,5660,301,1737,75,644,135455,2624,13908,94273,135849,126291,132765,94245,60296,654072,245602,1894,68.0,78.0,894.7078585885569,57.0,21.0,80,770,604,37.0,48.0,24.0,15.0,0.0,2.0,57.0,25.0,17.0,10.0,71.0,27.0
Haryana,Panchkula,30.700897142857134,76.97173238095236,69,HARYANA,561293,299679,261614,405318,229862,175456,211479,164865,46614,12827,9870,490702,23451,2583,40951,1008,1626,103455,18615,32174,45607,73584,60177,69163,48306,83256,388559,119222,1445,72.0,77.0,872.9807560756676,67.0,10.0,42,540,605,38.0,55.0,18.0,18.0,3.0,6.0,55.0,28.0,17.0,8.0,69.0,21.0
Haryana,Panipat,29.34352134146342,76.92895914634147,75,HARYANA,1205437,646857,558580,786599,464136,322463,412318,328667,83651,62358,15824,1083936,86622,2261,25064,289,4647,209965,10024,26719,118873,170565,143466,141473,91756,75774,752884,296212,2559,65.0,72.0,863.52934265224,58.0,14.0,91,1035,866,34.0,51.0,15.0,17.0,1.0,2.0,61.0,25.0,14.0,10.0,62.0,25.0
Haryana,Rewari,28.19164714828897,76.55956007604564,85,HARYANA,900332,474335,425997,636947,375453,261494,337727,235326,102401,28215,9782,889133,5713,701,1804,202,1525,152651,5121,18092,81280,120860,122617,139646,95807,65143,635173,206827,1979,71.0,79.0,898.0931198414622,61.0,18.0,72,780,727,38.0,50.0,24.0,17.0,1.0,2.0,58.0,26.0,17.0,9.0,71.0,23.0
Haryana,Rohtak,28.892517647058817,76.53123235294117,82,HARYANA,1061204,568479,492725,747582,436025,311557,345967,272646,73321,36568,8521,1043887,8185,732,3916,200,3491,193120,8482,27225,117097,150903,140782,168499,109596,100346,808357,248795,2299,70.0,77.0,866.7426589196787,63.0,14.0,77,909,852,33.0,48.0,15.0,18.0,1.0,3.0,57.0,25.0,17.0,11.0,76.0,23.0
Haryana,Sirsa,29.63583446327684,74.90970480225988,79,HARYANA,1295189,682582,612607,782897,456968,325929,502003,369462,132541,147042,11952,940255,9524,2186,338962,370,2256,215527,6287,22706,141766,201349,153263,134559,83373,61620,792628,412353,2681,60.0,67.0,897.4848443117456,53.0,14.0,113,1107,803,39.0,54.0,22.0,17.0,0.0,2.0,58.0,26.0,16.0,11.0,61.0,32.0
Himachal Pradesh,Chamba,32.66741814595661,76.39354063116366,23,HIMACHAL PRADESH,519080,261320,257760,323842,186064,137778,294035,158791,135244,9193,4521,479782,32455,1559,2745,1740,57,96082,1615,5117,56272,96789,67653,64515,40440,15506,344427,154575,950,62.0,71.0,986.3768559620388,53.0,18.0,118,498,207,57.0,61.0,52.0,19.0,0.0,1.0,59.0,25.0,16.0,11.0,66.0,30.0
Himachal Pradesh,Hamirpur,31.67668481012659,76.49767088607594,28,HIMACHAL PRADESH,454768,217070,237698,358091,180555,177536,241931,118724,123207,8824,3347,449412,3711,243,591,95,293,104120,2521,7525,37327,71107,72114,91184,64363,35620,376978,72551,878,79.0,83.0,1095.0292532362832,75.0,8.0,95,455,224,53.0,55.0,52.0,23.0,1.0,2.0,49.0,27.0,23.0,8.0,83.0,16.0
Himachal Pradesh,Hamirpur,31.67668481012659,76.49767088607594,168,UTTAR PRADESH,1104285,593537,510748,653299,408125,245174,443655,308527,135128,181449,19876,1010014,91269,814,196,74,41,55929,1196,11037,159593,238344,211029,103334,59914,59612,835920,364848,1291,59.0,69.0,860.5158566357278,48.0,21.0,240,738,240,40.0,52.0,26.0,5.0,0.0,1.0,60.0,24.0,16.0,14.0,76.0,33.0
Uttar Pradesh,Hamirpur,25.738158381502892,79.82619479768789,28,HIMACHAL PRADESH,454768,217070,237698,358091,180555,177536,241931,118724,123207,8824,3347,449412,3711,243,591,95,293,104120,2521,7525,37327,71107,72114,91184,64363,35620,376978,72551,878,79.0,83.0,1095.0292532362832,75.0,8.0,95,455,224,53.0,55.0,52.0,23.0,1.0,2.0,49.0,27.0,23.0,8.0,83.0,16.0
Uttar Pradesh,Hamirpur,25.738158381502892,79.82619479768789,168,UTTAR PRADESH,1104285,593537,510748,653299,408125,245174,443655,308527,135128,181449,19876,1010014,91269,814,196,74,41,55929,1196,11037,159593,238344,211029,103334,59914,59612,835920,364848,1291,59.0,69.0,860.5158566357278,48.0,21.0,240,738,240,40.0,52.0,26.0,5.0,0.0,1.0,60.0,24.0,16.0,14.0,76.0,33.0
Himachal Pradesh,Kangra,32.14093603238864,76.41205910931173,24,HIMACHAL PRADESH,1510075,750591,759484,1152640,606443,546197,675170,403756,271414,54849,15662,1461140,19797,3023,8929,14511,194,330081,8053,22753,127699,243617,223099,284124,192936,91236,1176288,271892,2878,76.0,81.0,1011.8479971116094,72.0,9.0,317,1506,722,45.0,54.0,36.0,22.0,1.0,2.0,51.0,28.0,21.0,8.0,78.0,18.0
Himachal Pradesh,Kinnaur,31.60667184065933,78.51613736263741,34,HIMACHAL PRADESH,84121,46249,37872,60699,36697,24002,56273,33863,22410,2537,944,64732,448,485,249,18086,29,17865,354,2563,9400,13749,11437,11140,7871,5118,59428,16944,181,72.0,79.0,818.8717593893922,63.0,16.0,21,96,44,67.0,73.0,59.0,21.0,0.0,3.0,50.0,32.0,18.0,11.0,71.0,20.0
Himachal Pradesh,Kullu,31.90911922077925,77.40922649350647,26,HIMACHAL PRADESH,437903,225452,212451,307672,174550,133122,269084,148829,120255,12372,2707,415669,2974,1568,1396,15377,94,91322,2623,7010,48384,77363,61854,58122,39081,23168,310349,103136,854,70.0,77.0,942.3336231215513,63.0,14.0,98,444,205,61.0,66.0,57.0,21.0,1.0,2.0,56.0,28.0,17.0,11.0,71.0,24.0
Himachal Pradesh,Mandi,31.635805940594054,76.96556930693067,27,HIMACHAL PRADESH,999777,498065,501712,723747,393669,330078,572671,297464,275207,15822,7134,981412,9460,876,4081,2628,43,214491,5333,16401,100052,159043,132147,180188,128549,54139,763468,218570,1842,72.0,79.0,1007.3223374459157,66.0,13.0,233,966,398,57.0,60.0,55.0,21.0,1.0,2.0,52.0,28.0,19.0,10.0,76.0,22.0
Himachal Pradesh,Shimla,31.155725451807253,77.62573042168668,33,HIMACHAL PRADESH,814010,425039,388971,612642,342846,269796,430926,258628,172298,26114,7967,791449,11810,2025,4047,3262,185,172754,9177,24127,69967,113536,113305,141490,95341,80414,623801,137576,1668,75.0,81.0,915.1419046252227,69.0,12.0,156,812,486,53.0,61.0,44.0,21.0,1.0,3.0,52.0,30.0,18.0,9.0,77.0,17.0
Himachal Pradesh,Sirmaur,30.682764453961443,77.43184689507493,32,HIMACHAL PRADESH,529855,276289,253566,362645,205617,157028,280083,169399,110684,10730,5313,476830,33215,577,15501,2645,236,91509,2220,8593,57853,100123,78103,67080,38282,23352,368841,140486,930,68.0,74.0,917.7564072402448,62.0,12.0,124,483,182,53.0,61.0,44.0,17.0,0.0,2.0,59.0,26.0,16.0,11.0,70.0,27.0
Himachal Pradesh,Solan,31.03864311926604,76.94442140672783,31,HIMACHAL PRADESH,580320,308754,271566,428578,244372,184206,298737,190001,108736,10283,4969,548579,14678,1452,13926,574,591,119866,5250,14478,50331,89407,83992,95232,59363,36803,423408,104084,1253,74.0,79.0,879.5545968635224,68.0,11.0,116,624,348,51.0,62.0,40.0,21.0,1.0,2.0,55.0,29.0,16.0,9.0,73.0,18.0
Himachal Pradesh,Una,31.58330388349513,76.18353932038836,29,HIMACHAL PRADESH,521173,263692,257481,399715,213281,186434,215346,141612,73734,19604,3427,480138,14275,390,26009,56,70,105929,2412,8238,51838,87913,81256,105204,60626,32120,424468,87735,987,77.0,81.0,976.4460051878707,72.0,9.0,108,511,247,41.0,54.0,29.0,20.0,0.0,2.0,52.0,27.0,20.0,10.0,81.0,17.0
Jammu and Kashmir,Doda,33.359614675767915,76.07163720136518,16,JAMMU AND KASHMIR,409936,213641,196295,219083,138620,80463,151912,101144,50768,12199,1932,187621,220614,472,422,21,22,61831,596,3077,43794,47350,62719,48359,31416,12647,248131,163565,1103,53.0,65.0,918.8077194920451,41.0,24.0,247,566,196,37.0,47.0,26.0,15.0,0.0,1.0,64.0,23.0,13.0,11.0,61.0,40.0
Jammu and Kashmir,Jammu,32.713199095022645,74.8477520361991,21,JAMMU AND KASHMIR,1529958,813821,716137,1137135,641916,495219,508622,417456,91166,36873,10589,1289240,107489,12104,114272,470,1987,294739,19905,46657,135391,185962,253542,261852,159257,146501,1173121,268279,3525,74.0,79.0,879.9686909037737,69.0,10.0,404,1509,1061,33.0,51.0,13.0,19.0,1.0,3.0,53.0,28.0,18.0,9.0,77.0,18.0
Jammu and Kashmir,Kargil,33.565994894894914,76.63675315315312,4,JAMMU AND KASHMIR,140802,77785,63017,86236,56301,29935,51873,39839,12034,3763,1222,10341,108239,604,1171,20126,28,15824,235,1005,12732,19083,20874,16938,9826,3077,82938,39854,214,61.0,72.0,810.1433438323584,48.0,24.0,39,114,37,37.0,51.0,19.0,11.0,0.0,1.0,62.0,25.0,12.0,9.0,59.0,28.0
Jammu and Kashmir,Kathua,32.51781678321678,75.58901398601404,7,JAMMU AND KASHMIR,616435,326109,290326,389204,228499,160705,200431,161548,38883,21566,3952,540063,64234,1828,9551,24,16,109422,1443,6112,69396,82715,106411,91522,47694,24330,426572,181297,936,63.0,70.0,890.2728842196934,55.0,15.0,139,514,151,33.0,50.0,13.0,18.0,0.0,1.0,58.0,26.0,16.0,11.0,69.0,29.0
Jammu and Kashmir,Pulwama,33.88414418604652,75.00921860465118,12,JAMMU AND KASHMIR,560440,293064,267376,293958,178326,115632,188420,138428,49992,34080,10615,13840,535159,1109,9440,35,6,73629,1537,5293,36201,54808,73991,67368,40931,31286,310482,190369,1068,52.0,61.0,912.3467911445964,43.0,18.0,213,549,199,34.0,47.0,19.0,13.0,0.0,1.0,61.0,24.0,14.0,6.0,55.0,34.0
Jammu and Kashmir,Punch,33.791241290322574,74.29593161290322,5,JAMMU AND KASHMIR,476835,251899,224936,261724,163333,98391,161393,117677,43716,31583,3930,32604,431279,958,11188,83,10,62900,346,3342,55762,72024,69219,46062,29517,13962,288430,164044,629,55.0,65.0,892.9610677295266,44.0,21.0,117,346,97,34.0,47.0,19.0,13.0,0.0,1.0,64.0,23.0,13.0,12.0,60.0,34.0
Jammu and Kashmir,Srinagar,34.27312898550724,75.11021159420288,10,JAMMU AND KASHMIR,1236829,651124,585705,748584,431746,316838,407188,333151,74037,10408,20095,42540,1177342,2746,12187,285,74,165403,16413,33831,88911,173309,178723,176409,132727,121856,904049,310225,3099,61.0,66.0,899.5291219491219,54.0,12.0,251,1095,1144,33.0,51.0,13.0,13.0,1.0,3.0,56.0,28.0,15.0,7.0,73.0,25.0
Jammu and Kashmir,Udhampur,33.04770670731707,75.15286951219511,19,JAMMU AND KASHMIR,554985,296784,258201,322354,197543,124811,243672,163845,79827,11396,2641,489044,59771,1962,3418,106,57,73999,1214,5744,58567,80129,86008,55024,29657,17345,330760,194838,1278,58.0,67.0,869.9963609898108,48.0,19.0,218,663,231,44.0,55.0,31.0,13.0,0.0,1.0,61.0,25.0,13.0,11.0,60.0,35.0
Jharkhand,Bokaro,23.6814965034965,85.98398374125864,355,JHARKHAND,2062330,1072807,989523,1273520,759088,514432,685368,507677,177691,126406,21671,1636460,241451,13730,4174,1890,2045,274726,9754,37997,242467,338861,342646,232434,154076,116396,1448037,595924,3604,62.0,71.0,922.3681426388903,52.0,19.0,539,2085,660,33.0,47.0,18.0,13.0,0.0,2.0,61.0,25.0,14.0,12.0,70.0,29.0
Jharkhand,Chatra,24.11619945750453,84.93295804701627,347,JHARKHAND,1042886,533935,508951,510061,303902,206159,397690,251213,146477,188513,14210,903179,116710,6565,888,35,129,27037,590,9115,200861,161729,102033,63670,35342,21697,587378,467975,817,49.0,57.0,953.2077874647663,41.0,16.0,230,506,71,38.0,47.0,29.0,3.0,0.0,1.0,66.0,21.0,12.0,19.0,56.0,45.0
Jharkhand,Deoghar,24.33070100755672,86.75697632241814,350,JHARKHAND,1492073,775022,717051,793538,489837,303701,551467,383691,167776,209693,39361,1165140,302626,6027,143,188,282,130193,1944,13550,217460,266292,190171,96331,54419,43979,875351,635544,1267,53.0,63.0,925.2008330086113,42.0,21.0,329,772,131,37.0,50.0,23.0,9.0,0.0,1.0,63.0,23.0,14.0,15.0,59.0,43.0
Jharkhand,Dhanbad,23.854509090909097,86.40372924901185,354,JHARKHAND,2684487,1405956,1278531,1722204,1014950,707254,844504,658851,185653,103488,25889,2149480,431762,11243,9727,331,1268,427173,11568,46646,317918,501453,449506,305054,186697,107382,1882625,662522,3954,64.0,72.0,909.3677184776764,55.0,17.0,529,2271,782,31.0,47.0,15.0,16.0,0.0,2.0,61.0,24.0,13.0,12.0,70.0,25.0
Jharkhand,Dumka,24.275006125574265,87.27662450229711,362,JHARKHAND,1321442,668514,652928,672409,406275,266134,624779,367108,257671,303084,23106,1044726,106865,86404,234,267,162,62110,1193,10396,229157,229259,149009,69525,38383,25593,743623,601078,1323,51.0,61.0,976.6856041907873,41.0,20.0,376,818,112,47.0,55.0,39.0,5.0,0.0,1.0,60.0,25.0,15.0,17.0,56.0,45.0
Jharkhand,Garhwa,24.082114689265527,83.68664265536722,346,JHARKHAND,1322784,683575,639209,653476,405161,248315,571431,335451,235980,328673,14487,1104475,194680,17168,123,371,20,29373,565,8881,207665,195565,147446,87844,46882,28144,716376,557852,1017,49.0,59.0,935.097099806166,39.0,20.0,321,629,59,43.0,49.0,37.0,2.0,0.0,1.0,65.0,21.0,13.0,16.0,54.0,42.0
Jharkhand,Giridih,24.30578509874329,86.08710915619386,349,JHARKHAND,2445474,1258098,1187376,1253475,783736,469739,1036277,623946,412331,362610,32544,1856202,508586,14645,937,650,1503,125431,1944,19976,503261,443980,261309,146464,77540,55122,1496125,1047685,2384,51.0,62.0,943.7865730650553,40.0,22.0,613,1469,254,42.0,50.0,35.0,5.0,0.0,1.0,65.0,22.0,13.0,21.0,61.0,43.0
Jharkhand,Godda,24.8189,87.2941735483871,351,JHARKHAND,1313551,677927,635624,604519,376212,228307,552191,344019,208172,307767,18719,937126,289182,37795,97,128,115,43230,874,11925,217607,190777,126766,79430,47395,30870,696847,653464,1057,46.0,55.0,937.5994760497812,36.0,19.0,299,657,93,42.0,51.0,33.0,3.0,0.0,1.0,62.0,23.0,14.0,17.0,53.0,50.0
Jharkhand,Gumla,23.078532948929148,84.55056787479396,366,JHARKHAND,1025213,514390,510823,559720,321795,237925,487508,264774,222734,97918,12771,309563,51429,202449,221,531,23,31687,831,7807,136719,242580,182260,82114,45613,23742,715941,322119,849,55.0,63.0,993.0655728144015,47.0,16.0,242,525,72,48.0,51.0,44.0,3.0,0.0,1.0,63.0,22.0,15.0,13.0,70.0,31.0
Jharkhand,Jamtara,23.97873318077801,86.95325080091534,363,JHARKHAND,791042,404830,386212,426312,258260,168052,326631,214740,111891,135667,11547,550560,164406,4419,520,118,783,49419,808,4959,131150,132014,85745,40613,22995,14802,428897,366012,540,54.0,64.0,954.01032532174,44.0,20.0,150,335,49,41.0,53.0,29.0,6.0,0.0,1.0,61.0,24.0,15.0,17.0,54.0,46.0
Jharkhand,Latehar,23.72511185840708,84.48298743362837,359,JHARKHAND,726978,369666,357312,350682,209706,140976,313379,180106,133273,142729,9205,473049,69808,47653,120,128,16,38194,340,6240,109491,121529,88787,46142,23885,13956,404807,349277,547,48.0,57.0,966.5806430669847,39.0,18.0,146,338,56,43.0,49.0,37.0,5.0,0.0,1.0,67.0,21.0,12.0,15.0,56.0,48.0
Jharkhand,Lohardaga,23.488796043165483,84.6605169064748,356,JHARKHAND,461790,232629,229161,259707,149568,110139,221332,121605,99727,80840,4449,112378,95012,16770,51,33,15,28769,351,2954,82873,84920,63545,38503,21987,13847,306651,188323,388,56.0,64.0,985.0921424242034,48.0,16.0,108,236,33,48.0,52.0,44.0,6.0,0.0,1.0,65.0,22.0,13.0,18.0,66.0,41.0
Jharkhand,Pakur,24.57260428082189,87.69691969178076,353,JHARKHAND,900422,452661,447761,352881,206989,145892,404584,234012,170572,150028,19471,410127,322963,75865,356,283,222,31414,328,4535,100367,133770,79045,29934,15700,9822,370163,548434,691,39.0,46.0,989.1751222217068,33.0,13.0,212,426,43,45.0,52.0,38.0,3.0,0.0,1.0,65.0,23.0,12.0,11.0,41.0,61.0
Jharkhand,Palamu,24.196925968109337,84.20310842824594,358,JHARKHAND,1939869,1006302,933567,1024563,621706,402857,713175,473042,240133,380976,19911,1683169,238295,6164,734,188,284,68238,2155,19981,303053,296937,231565,160964,100290,63595,1163521,803424,1515,53.0,62.0,927.720505375126,43.0,19.0,411,937,146,37.0,47.0,26.0,4.0,0.0,1.0,64.0,22.0,14.0,16.0,60.0,41.0
Jharkhand,Ranchi,23.184235061391547,85.31781937244203,364,JHARKHAND,2914253,1494937,1419316,1911433,1085244,826189,1142867,743967,398900,267360,38452,1612239,410759,193974,4826,932,2733,350908,22538,76565,361522,547583,495515,370847,247237,195181,2246309,613855,3805,66.0,73.0,949.4152596397039,58.0,15.0,674,2257,662,39.0,50.0,28.0,12.0,1.0,3.0,60.0,25.0,14.0,12.0,77.0,21.0
Jharkhand,Sahibganj,24.93667989690721,87.68264097938142,352,JHARKHAND,1150567,589391,561176,483263,287303,195960,490202,295690,194512,206902,43179,628044,398243,83208,198,245,125,34879,591,9563,146399,171416,110822,52248,28087,19832,531397,637296,954,42.0,49.0,952.1285530318582,35.0,14.0,276,582,71,43.0,50.0,35.0,3.0,0.0,1.0,65.0,23.0,12.0,13.0,46.0,55.0
Jharkhand,Simdega,22.608760391198054,84.59193691931536,367,JHARKHAND,599578,300309,299269,343483,191991,151492,288645,159867,128778,90232,8011,201524,15103,306601,51,753,114,16865,423,4649,82317,130068,97580,47836,24842,13674,397514,191341,496,57.0,64.0,996.5369003259975,51.0,13.0,148,306,35,48.0,53.0,43.0,3.0,0.0,1.0,60.0,24.0,16.0,14.0,66.0,32.0
Karnataka,Bagalkot,16.15860676328503,75.64526070853468,556,KARNATAKA,1889752,950111,939641,1113412,641388,472024,818081,511575,306506,303243,44797,1634229,219991,3433,443,412,25198,301389,3745,26297,242336,385986,147397,171505,115095,82319,1170429,608843,2890,59.0,68.0,988.9802349409701,50.0,18.0,380,1505,461,43.0,54.0,33.0,16.0,0.0,1.0,59.0,25.0,16.0,13.0,62.0,32.0
Karnataka,Bangalore Rural,12.936827087794448,77.47369314775169,583,KARNATAKA,990923,509172,481751,688749,385311,303438,459891,315499,144392,84108,19457,890429,92252,5368,389,272,1045,214253,3729,17066,100770,168165,126285,166677,82235,51015,705888,205062,1422,70.0,76.0,946.1458996174181,63.0,13.0,164,748,292,46.0,62.0,30.0,22.0,0.0,2.0,54.0,28.0,18.0,10.0,71.0,21.0
Karnataka,Belgaum,16.16107219152853,74.72329042357275,555,KARNATAKA,4779661,2423063,2356598,3052032,1725548,1326484,2105668,1372422,733246,649517,60342,4038331,528412,18418,2037,1086,178310,808827,17560,73497,544564,1057297,609600,532584,279583,201884,3282133,1346776,7045,64.0,71.0,972.5698423854435,56.0,15.0,1016,3545,1273,44.0,57.0,31.0,17.0,0.0,2.0,56.0,26.0,18.0,11.0,69.0,28.0
Karnataka,Bellary,15.074377548209377,76.47228471074374,565,KARNATAKA,2452595,1236954,1215641,1421621,813440,608181,1116880,703258,413622,406092,22832,2103633,320834,14014,1029,284,8044,440374,9626,40190,275785,529576,219702,203139,121453,89475,1468497,787762,3886,58.0,66.0,982.7697715517311,50.0,16.0,415,1983,815,46.0,57.0,34.0,18.0,0.0,2.0,61.0,25.0,14.0,11.0,60.0,32.0
Karnataka,Bidar,17.950361730769224,77.19459961538459,558,KARNATAKA,1703300,870665,832635,1042673,597198,445475,702608,459050,243558,280091,18095,1289709,335184,35438,1145,30453,680,271439,3971,36072,188998,474921,194233,181076,105347,54900,1212360,515395,2448,61.0,69.0,956.320743339861,54.0,15.0,377,1264,361,41.0,53.0,29.0,16.0,0.0,2.0,60.0,23.0,17.0,11.0,71.0,30.0
Karnataka,Bijapur,16.84015316666667,75.95909166666665,417,CHHATTISGARH,255230,128663,126567,86919,54076,32843,134525,71591,62934,49859,1399,245151,1617,2709,68,1649,15,12516,117,1462,25597,22787,14170,7192,6755,3421,80069,163278,1387,34.0,42.0,983.7093803191283,26.0,16.0,293,911,134,53.0,56.0,50.0,5.0,0.0,1.0,66.0,25.0,9.0,10.0,31.0,64.0
Karnataka,Bijapur,16.84015316666667,75.95909166666665,557,KARNATAKA,2177331,1111022,1066309,1248268,730566,517702,927722,580111,347611,351600,25379,1786830,369588,2433,558,374,8665,326594,4987,36571,246391,430477,143199,182756,129109,96990,1253491,746979,2938,57.0,66.0,959.755072356803,49.0,17.0,447,1503,469,43.0,52.0,33.0,15.0,0.0,2.0,59.0,24.0,16.0,11.0,58.0,34.0
Karnataka,Chikmagalur,13.425288289676422,75.67626502311249,570,KARNATAKA,1137961,566622,571339,818345,438257,380088,565774,357889,207885,126600,8873,1004553,101235,26000,182,109,4710,238505,4510,18727,114570,257550,160083,177585,96470,72420,891309,204371,1996,72.0,77.0,1008.324773835114,67.0,10.0,239,1059,380,50.0,63.0,36.0,21.0,0.0,2.0,50.0,30.0,20.0,10.0,78.0,18.0
Karnataka,Chitradurga,14.29102220394736,76.57821957236843,566,KARNATAKA,1659456,840843,818613,1087392,607188,480204,856587,513311,343276,294337,26235,1520553,128751,3175,322,84,3778,307257,5711,28897,188329,332648,196470,217567,132435,75262,1164789,452975,2374,66.0,72.0,973.5622464598029,59.0,13.0,365,1233,345,52.0,61.0,42.0,19.0,0.0,2.0,54.0,28.0,18.0,11.0,70.0,27.0
Karnataka,Davanagere,14.330414586709884,75.91723841166937,567,KARNATAKA,1945497,986400,959097,1308540,720637,587903,875207,585639,289568,295873,31438,1658465,265805,5420,307,164,6417,372671,7320,39416,242130,446793,206686,269748,154781,123863,1476376,467414,3062,67.0,73.0,972.3205596107056,61.0,12.0,406,1588,493,45.0,59.0,30.0,19.0,0.0,2.0,55.0,28.0,17.0,12.0,76.0,24.0
Karnataka,Dharwad,15.343831376975173,75.13831264108359,562,KARNATAKA,1847023,937206,909817,1301664,711776,589888,784833,543776,241057,207642,16463,1390020,386834,28747,1486,715,29037,347962,15013,49585,252596,383041,185530,227113,143453,137768,1363803,428556,3519,70.0,76.0,970.7759019895306,65.0,11.0,289,1738,869,42.0,58.0,26.0,19.0,1.0,3.0,55.0,27.0,17.0,14.0,74.0,23.0
Karnataka,Gadag,15.507128256880746,75.64861302752298,561,KARNATAKA,1064570,537147,527423,700177,397178,302999,495722,310412,185310,200310,15485,907750,143665,3432,231,79,5993,198064,3373,15625,121615,244640,112703,105150,63816,42053,702799,306138,1699,66.0,74.0,981.8969481352405,57.0,17.0,218,881,278,47.0,58.0,35.0,19.0,0.0,1.0,57.0,26.0,17.0,11.0,66.0,29.0
Karnataka,Gulbarga,17.070459515951594,76.87503850385033,579,KARNATAKA,2566326,1301755,1264571,1427368,828359,599009,1087028,680001,407027,415267,25891,2011014,513125,8344,826,9589,4865,404767,9752,52483,177860,579057,270622,290570,153746,104256,1596603,883704,5378,56.0,64.0,971.435485171941,47.0,17.0,761,2763,872,42.0,52.0,32.0,16.0,0.0,2.0,61.0,24.0,15.0,7.0,62.0,34.0
Karnataka,Hassan,12.945098749999998,76.11049549999997,574,KARNATAKA,1776421,883667,892754,1225256,668836,556420,903580,560452,343128,165910,16126,1630814,120011,15611,289,623,5820,400702,4851,23444,182255,354480,232531,292369,147837,103152,1340398,401227,2743,69.0,76.0,1010.2832854457617,62.0,14.0,390,1438,434,51.0,63.0,38.0,23.0,0.0,1.0,49.0,29.0,21.0,10.0,75.0,23.0
Karnataka,Haveri,14.737582809224318,75.3961230607966,564,KARNATAKA,1597668,819128,778540,1085443,603793,481650,730066,490731,239335,311263,20217,1281878,297927,2406,419,68,9834,295937,2456,17819,240925,430529,201965,158442,84357,55310,1188358,383494,2240,68.0,74.0,950.4497465597562,62.0,12.0,353,1153,332,46.0,60.0,31.0,19.0,0.0,1.0,57.0,27.0,17.0,15.0,74.0,24.0
Karnataka,Kodagu,12.39684468085106,75.79336595744688,576,KARNATAKA,554519,274608,279911,412877,215302,197575,278938,172100,106838,15153,1549,448986,87274,17130,139,126,250,113931,3308,10758,51287,111562,75291,86232,54939,43225,430787,91352,942,74.0,78.0,1019.311163549496,71.0,7.0,116,494,201,50.0,63.0,38.0,21.0,1.0,2.0,50.0,29.0,21.0,9.0,78.0,16.0
Karnataka,Kolar,13.312799881235172,78.01376947743476,581,KARNATAKA,1536401,776396,760005,1016219,564110,452109,717872,454048,263824,201233,24178,1305431,199873,26722,253,150,2494,309494,5051,27235,138015,289841,228422,225498,107929,71422,1079088,399089,3389,66.0,73.0,978.8883507900607,59.0,14.0,477,1806,440,47.0,58.0,35.0,20.0,0.0,2.0,55.0,27.0,18.0,9.0,70.0,26.0
Karnataka,Koppal,15.651253271028034,76.1617048598131,560,KARNATAKA,1389920,699926,689994,809085,468785,340300,654766,387974,266792,273016,18794,1218024,161770,4081,296,85,2898,223166,2135,15263,222140,357098,127605,113028,72243,43967,946512,472182,1889,58.0,67.0,985.8099284781534,49.0,18.0,317,971,272,47.0,55.0,39.0,16.0,0.0,1.0,62.0,24.0,15.0,16.0,68.0,34.0
Karnataka,Mandya,12.574901806239744,76.81570098522172,573,KARNATAKA,1805769,905085,900684,1149649,638668,510981,871408,575203,296205,216159,17834,1712695,77801,8506,322,299,3607,391033,3367,20265,145178,309476,226552,308624,157839,102838,1270494,504734,2628,64.0,71.0,995.1374732759907,57.0,14.0,408,1388,343,48.0,64.0,33.0,22.0,0.0,1.0,50.0,29.0,21.0,8.0,70.0,28.0
Karnataka,Mysore,12.248100259403367,76.52881802853437,577,KARNATAKA,3001127,1511600,1489527,1962180,1063766,898414,1314268,921803,392465,311002,28162,2631985,290549,39361,1255,16194,14419,640868,28397,80086,207091,537686,404565,452412,222230,212541,2063359,747237,4995,65.0,70.0,985.3975919555438,60.0,10.0,535,2483,1111,44.0,61.0,26.0,21.0,1.0,3.0,53.0,29.0,18.0,7.0,69.0,25.0
Karnataka,Raichur,16.050795353982295,76.87368606194688,559,KARNATAKA,1928812,964511,964301,979769,577213,402556,903413,530373,373040,383526,19095,1634062,272022,10394,538,2265,4156,314547,5200,33903,147743,385673,163709,153346,82082,50463,997638,783126,2672,51.0,60.0,999.7822730896796,42.0,18.0,438,1323,459,47.0,55.0,39.0,16.0,0.0,2.0,62.0,24.0,14.0,8.0,52.0,41.0
Karnataka,Shimoga,14.063845885634592,75.17882078103197,568,KARNATAKA,1752753,877415,875338,1263016,674938,588078,780598,534487,246111,246464,15087,1479424,234664,26521,400,120,9234,363835,8791,35207,191641,385978,292481,251095,132138,111753,1383122,355222,3119,72.0,77.0,997.6328191334774,67.0,10.0,336,1612,621,45.0,61.0,28.0,21.0,1.0,2.0,52.0,29.0,19.0,11.0,79.0,20.0
Karnataka,Tumkur,13.592467760074973,77.02297966260545,571,KARNATAKA,2678980,1350594,1328386,1813391,1006024,807367,1354646,837512,517134,352286,54523,2413812,245923,9130,477,187,5067,562769,7971,41751,270373,500593,386998,423738,213588,143735,1969712,686274,4067,68.0,74.0,983.5568646092015,61.0,13.0,613,2097,625,51.0,62.0,39.0,21.0,0.0,2.0,50.0,28.0,21.0,10.0,74.0,26.0
Karnataka,Udupi,13.450404228534568,74.72009990316337,569,KARNATAKA,1177361,562131,615230,926429,465704,460725,513241,335399,177842,63390,10580,1009179,96740,65838,232,161,4534,224814,9070,24817,142493,286193,176260,178094,109663,107279,1018426,204028,2100,79.0,83.0,1094.4601881056194,75.0,8.0,209,1052,568,44.0,60.0,29.0,19.0,1.0,2.0,48.0,29.0,23.0,12.0,87.0,17.0
Kerala,Alappuzha,9.542602965599087,76.38010796263319,598,KERALA,2127789,1013142,1114647,1852797,890552,962245,804471,536738,267733,71706,35865,1460447,224545,435056,268,146,74,507913,28842,71593,133039,334339,418953,573306,274789,198858,1991380,163991,3368,87.0,88.0,1100.1883250324238,86.0,2.0,516,1952,625,38.0,53.0,24.0,24.0,1.0,3.0,42.0,30.0,28.0,6.0,94.0,8.0
Kerala,Ernakulam,10.004879301987431,76.26957729035381,595,KERALA,3282388,1619557,1662831,2855676,1425723,1429953,1249343,913249,336094,71391,23976,1509557,514397,1248137,860,614,1176,771287,88737,184167,212263,446380,554817,702511,389793,429880,2848777,268315,6274,87.0,88.0,1026.7196523493772,86.0,2.0,654,3527,1310,38.0,56.0,20.0,23.0,3.0,6.0,43.0,31.0,26.0,6.0,87.0,8.0
Kerala,Idukki,9.80480963855423,77.04586641566264,596,KERALA,1108974,552808,556166,923010,471881,451129,516363,331710,184653,145698,6888,541854,82206,481507,100,189,44,244844,8250,24863,79149,166604,209398,261237,136428,86136,958204,126589,1374,83.0,85.0,1006.0744417591641,81.0,4.0,329,773,246,47.0,60.0,33.0,22.0,1.0,2.0,45.0,32.0,24.0,7.0,86.0,11.0
Kerala,Kannur,11.941523076923056,75.35209891725934,589,KERALA,2523003,1181446,1341557,2138434,1012956,1125478,824116,609377,214739,82988,12875,1509592,742483,262526,424,1118,193,511167,32653,83940,204713,487016,491844,540383,308670,217203,2290106,279352,4432,85.0,86.0,1135.5212172202537,84.0,2.0,536,2564,681,33.0,52.0,16.0,20.0,1.0,3.0,47.0,29.0,23.0,8.0,91.0,11.0
Kerala,Kasaragod,12.33310309912974,75.07768497134369,588,KERALA,1307375,628613,678762,1037492,516476,521016,462998,325095,137903,38774,24496,729987,486913,87454,151,362,130,237670,10378,32484,115476,268084,230416,238900,122657,76192,1068310,212905,1988,79.0,82.0,1079.7772238245154,77.0,5.0,305,1188,337,35.0,52.0,20.0,18.0,1.0,2.0,53.0,28.0,19.0,9.0,82.0,16.0
Kerala,Kollam,8.929388820570157,76.6360775852431,600,KERALA,2635375,1246968,1388407,2240273,1074345,1165928,912025,644362,267663,92193,21511,1697635,508500,421598,208,272,63,630767,31542,83133,172247,406592,562529,595191,307950,233402,2341963,231286,3910,85.0,86.0,1113.426326898525,84.0,2.0,667,2284,749,35.0,52.0,19.0,24.0,1.0,3.0,45.0,30.0,25.0,7.0,89.0,9.0
Kerala,Kottayam,9.643701174068417,76.46059673302705,597,KERALA,1974551,968289,1006262,1749798,861592,888206,735735,530322,205413,63052,18523,983598,126499,858608,204,358,83,464039,37849,83999,117681,271496,373998,475724,280720,221350,1793308,134393,3071,89.0,89.0,1039.2165975240864,88.0,1.0,481,1811,605,37.0,55.0,20.0,24.0,2.0,4.0,41.0,30.0,29.0,6.0,91.0,7.0
Kerala,Kozhikode,11.392924270557026,75.71158720159153,591,KERALA,3086293,1470942,1615351,2615443,1266939,1348504,948981,752333,196648,64198,13312,1734958,1211131,131516,297,235,601,641660,36791,107602,247996,564392,647221,630818,351267,250117,2744977,335520,4594,85.0,86.0,1098.1745031415242,83.0,3.0,770,2546,732,31.0,51.0,12.0,21.0,1.0,3.0,48.0,29.0,22.0,8.0,89.0,11.0
Kerala,Malappuram,10.97329875666072,75.93910775606876,592,KERALA,4112920,1960328,2152592,3311315,1597404,1713911,1062424,898157,164267,117405,18423,1135259,2888849,81556,205,179,68,730119,27909,119918,415601,770417,814285,933793,392867,203779,3572086,622345,4838,81.0,81.0,1098.0774645875588,80.0,1.0,1156,2668,828,26.0,46.0,8.0,18.0,1.0,3.0,58.0,25.0,16.0,10.0,87.0,15.0
Kerala,Palakkad,10.784926903553291,76.49980490693744,593,KERALA,2809934,1359478,1450456,2239492,1122600,1116892,1042340,746121,296219,249949,25035,1875980,812936,114397,220,238,78,587583,27162,69440,249198,492864,608176,572412,232109,180540,2371669,439934,3929,80.0,83.0,1066.9212741949484,77.0,6.0,692,2331,756,37.0,55.0,20.0,21.0,1.0,2.0,50.0,29.0,22.0,9.0,84.0,16.0
Kerala,Thiruvananthapuram,8.537101759082221,76.88711502868073,601,KERALA,3301427,1581678,1719749,2785408,1354857,1430551,1231669,864101,367568,94470,28587,2194057,452915,630573,404,301,76,783872,71621,155321,206328,460690,642470,682156,389161,381782,2838716,309042,5770,84.0,86.0,1087.2940004223365,83.0,3.0,766,3300,1188,37.0,55.0,21.0,24.0,2.0,5.0,45.0,30.0,25.0,6.0,86.0,9.0
Kerala,Thrissur,10.458932647907687,76.12321940836945,594,KERALA,3121200,1480763,1640437,2678548,1282261,1396287,1095727,789511,306216,73941,27883,1823442,532839,757484,259,278,62,721625,56148,132774,222627,445696,524387,821831,362657,338600,2787333,307665,5612,86.0,87.0,1107.8322459434764,85.0,2.0,622,3270,1035,35.0,53.0,19.0,23.0,2.0,4.0,45.0,30.0,25.0,7.0,89.0,10.0
Kerala,Wayanad,11.715277464788736,76.07587007042254,590,KERALA,817420,401684,415736,645585,328136,317449,340077,228639,111438,101630,4574,404460,234185,174453,61,312,1797,149864,4712,15944,65326,144896,137227,184266,87042,51111,678654,131211,1095,79.0,82.0,1034.9827227372762,76.0,6.0,234,645,201,42.0,57.0,27.0,18.0,1.0,2.0,51.0,30.0,19.0,8.0,83.0,16.0
Madhya Pradesh,Anuppur,23.18184220430107,81.86560000000007,461,MADHYA PRADESH,749237,379114,370123,436595,254120,182475,346471,207401,139070,130376,7051,686524,21473,2132,606,86,1653,81338,1290,7266,113208,115716,93450,58536,42743,31646,458365,271733,787,58.0,67.0,976.2841783737873,49.0,18.0,166,550,63,46.0,55.0,38.0,11.0,0.0,1.0,59.0,26.0,15.0,15.0,61.0,36.0
Madhya Pradesh,Ashoknagar,24.63098846153845,77.82974493927134,459,MADHYA PRADESH,845071,443837,401234,469109,290304,178805,315270,231829,83441,122387,10559,778214,40707,635,8009,1352,15094,84720,619,6016,148647,117053,62802,51499,29551,22791,435809,359525,861,56.0,65.0,904.0120584809288,45.0,20.0,176,575,69,37.0,52.0,21.0,10.0,0.0,1.0,63.0,23.0,14.0,18.0,52.0,43.0
Madhya Pradesh,Balaghat,21.80020720640569,80.42170053380796,457,MADHYA PRADESH,1701698,842178,859520,1147623,626468,521155,893014,488610,404404,459796,19245,1519384,38542,5295,1050,72162,4778,277927,1712,13306,290699,312640,235251,168635,126308,74213,1215160,493415,1709,67.0,74.0,1020.5918463792689,61.0,13.0,347,1140,138,52.0,58.0,47.0,16.0,0.0,1.0,57.0,27.0,16.0,17.0,71.0,29.0
Madhya Pradesh,Barwani,21.702135714285724,74.91004719710673,441,MADHYA PRADESH,1385881,699340,686541,549926,313642,236284,653897,365928,287969,267196,7451,1318869,58222,2967,2361,416,2289,181139,1158,8516,157337,137116,74067,59100,42649,30754,503604,825034,1336,40.0,45.0,981.6984585466296,34.0,11.0,315,882,80,47.0,52.0,42.0,13.0,0.0,1.0,67.0,22.0,11.0,11.0,36.0,60.0
Madhya Pradesh,Betul,21.964626315789477,77.7873428189117,447,MADHYA PRADESH,1575362,799236,776126,939769,529783,409986,786980,453887,333093,358157,11849,1505745,37590,3271,1078,9651,3759,230974,2109,13755,239114,232532,176325,140402,105696,82761,982706,603098,1845,60.0,66.0,971.0848860661932,53.0,13.0,344,1219,190,50.0,57.0,43.0,15.0,0.0,1.0,60.0,25.0,15.0,15.0,62.0,38.0
Madhya Pradesh,Bhind,26.35951126187245,78.7618324287653,420,MADHYA PRADESH,1703005,926843,776162,1094917,676513,418404,520768,455775,64993,158266,9838,1595400,66776,973,4047,12215,19950,107819,1166,14368,202629,261162,199044,140743,96011,50222,957870,388473,1786,64.0,73.0,837.4255402479168,54.0,19.0,379,1123,148,31.0,49.0,8.0,6.0,0.0,1.0,61.0,23.0,15.0,12.0,56.0,23.0
Madhya Pradesh,Bhopal,23.480726143790854,77.39246623093679,444,MADHYA PRADESH,2371061,1236130,1134931,1660690,920314,740376,867457,644960,222497,105195,24732,1755861,525434,23432,10789,21688,25950,452912,40788,94729,229082,303171,287198,211371,178165,266618,1506450,462581,4298,70.0,74.0,918.1323970779772,65.0,9.0,354,2188,1208,37.0,52.0,20.0,19.0,2.0,4.0,59.0,26.0,14.0,10.0,64.0,20.0
Madhya Pradesh,Burhanpur,21.364567254408065,76.24460478589425,467,MADHYA PRADESH,757847,388504,369343,408679,233073,175606,328339,211925,116414,156295,8077,552526,180840,1199,1074,19883,1884,112420,986,5058,107547,119468,69765,57058,42618,28237,429454,317962,989,54.0,60.0,950.6800444783065,48.0,12.0,160,607,126,43.0,55.0,32.0,15.0,0.0,1.0,62.0,24.0,14.0,14.0,57.0,42.0
Madhya Pradesh,Chhatarpur,24.813637376460004,79.56449299191374,425,MADHYA PRADESH,1762375,936121,826254,943033,572010,371023,751797,481518,270279,238364,26390,1676918,70351,1980,968,250,10409,176056,1880,15567,270951,236054,160310,112961,77787,59704,925604,770268,1947,54.0,61.0,882.6358985643949,45.0,16.0,413,1239,164,43.0,51.0,33.0,10.0,0.0,1.0,63.0,22.0,14.0,15.0,53.0,44.0
Madhya Pradesh,Chhindwara,22.227966971713823,78.76413136439254,455,MADHYA PRADESH,2090922,1064468,1026454,1294198,731294,562904,957984,582263,375721,422668,14585,1923920,100692,4893,2258,24471,7830,344875,3588,20034,284113,336391,225747,215098,167946,112383,1353819,663446,2513,62.0,69.0,964.2882641845504,55.0,14.0,455,1618,273,46.0,55.0,37.0,16.0,0.0,1.0,59.0,26.0,15.0,14.0,65.0,32.0
Madhya Pradesh,Damoh,23.76624407960196,79.47049303482588,428,MADHYA PRADESH,1264219,661873,602346,747715,445737,301978,574595,367711,206884,250165,67383,1186420,47966,1681,1096,119,25005,187731,1432,10504,197917,217296,150040,95032,64414,41158,771117,469038,1359,59.0,67.0,910.0628066109359,50.0,17.0,287,901,95,45.0,56.0,34.0,15.0,0.0,1.0,61.0,25.0,14.0,16.0,61.0,37.0
Madhya Pradesh,Datia,25.90226439560441,78.63916571428574,422,MADHYA PRADESH,786754,420157,366597,491445,303815,187630,321160,225662,95498,93744,6839,747693,28483,683,490,7923,453,97696,616,5251,132176,131372,88949,73398,48978,34853,513988,260076,951,62.0,72.0,872.5238422780056,51.0,21.0,202,622,69,41.0,54.0,26.0,12.0,0.0,1.0,60.0,25.0,15.0,17.0,65.0,33.0
Madhya Pradesh,Dewas,22.7851110021322,76.46088805970157,437,MADHYA PRADESH,1563715,805359,758356,925369,550716,374653,742676,451501,291175,310606,11816,1376591,174259,2355,2330,382,6497,270457,3518,16523,242508,225380,149522,125772,94403,55383,897959,565365,1899,59.0,68.0,941.6372077545542,49.0,19.0,334,1210,220,47.0,56.0,38.0,17.0,0.0,1.0,60.0,25.0,15.0,16.0,57.0,36.0
Madhya Pradesh,Dhar,22.572681718963157,75.1105620736698,438,MADHYA PRADESH,2185793,1112725,1073068,1077338,638479,438859,1027974,597079,430895,437437,15830,2051219,116202,2261,1607,328,12199,349639,2388,18626,262090,244058,164576,134279,99882,66721,978149,1021851,2470,49.0,57.0,964.3604664225213,41.0,16.0,453,1626,266,47.0,54.0,40.0,16.0,0.0,1.0,63.0,24.0,12.0,12.0,45.0,47.0
Madhya Pradesh,Dindori,22.83738437047757,81.04332966714911,453,MADHYA PRADESH,704524,351913,352611,378714,222759,155955,389925,203383,186542,190962,7958,605435,6736,4238,260,61,687,62372,554,6447,103002,113875,84065,49277,31104,15179,398176,295655,652,54.0,63.0,1001.9834447718612,44.0,19.0,151,459,32,55.0,58.0,53.0,9.0,0.0,1.0,60.0,26.0,15.0,15.0,57.0,42.0
Madhya Pradesh,Guna,24.49043927178156,77.2235895968791,458,MADHYA PRADESH,1241519,649362,592157,653980,400537,253443,514897,335454,179443,175615,12079,1172248,49203,1208,3271,529,13474,144248,2482,11740,197902,157141,84560,79924,50724,42147,618849,578034,1302,53.0,62.0,911.9058398859188,43.0,19.0,254,845,119,41.0,52.0,30.0,12.0,0.0,1.0,64.0,23.0,13.0,16.0,50.0,47.0
Madhya Pradesh,Gwalior,26.04074441964285,78.12782433035713,421,MADHYA PRADESH,2032036,1090327,941709,1357210,803114,554096,685311,548820,136491,120348,22592,1835299,141735,4119,24790,4361,18058,306859,15779,46454,235648,235924,204871,193082,166719,193947,1253339,554486,2830,67.0,74.0,863.6941027783408,59.0,15.0,330,1620,549,34.0,50.0,14.0,15.0,1.0,2.0,60.0,26.0,14.0,12.0,62.0,27.0
Madhya Pradesh,Harda,22.227659781121783,77.07022571819435,448,MADHYA PRADESH,570465,294838,275627,352550,203807,148743,230979,156852,74127,101256,6459,527462,38640,683,676,93,1573,95066,986,5376,90059,87733,60757,46556,31939,27126,347639,177731,619,62.0,69.0,934.8421845216695,54.0,15.0,128,399,58,40.0,53.0,27.0,17.0,0.0,1.0,61.0,24.0,15.0,16.0,61.0,31.0
Madhya Pradesh,Hoshangabad,22.595268801996703,78.02168094841929,449,MADHYA PRADESH,1241350,648725,592625,810644,469199,341445,478082,345435,132647,181967,9982,1175203,52269,4453,3127,1550,3888,198076,2871,14456,159703,183156,145076,119682,89589,84769,791254,344492,1535,65.0,72.0,913.5226791013141,58.0,14.0,276,969,169,39.0,53.0,22.0,16.0,0.0,1.0,59.0,26.0,15.0,13.0,64.0,28.0
Madhya Pradesh,Indore,22.680265752128648,75.9133801324502,439,MADHYA PRADESH,3276697,1699627,1577070,2309130,1289631,1019499,1268195,939055,329140,185528,43584,2728225,415142,18523,25696,11496,71667,593576,48691,111478,428413,472233,384611,362209,300076,382658,2366526,718174,5783,70.0,76.0,927.8918256770456,65.0,11.0,539,3134,1394,39.0,55.0,21.0,18.0,1.0,3.0,57.0,27.0,15.0,13.0,72.0,22.0
Madhya Pradesh,Jabalpur,23.18525572327043,79.98328754716981,451,MADHYA PRADESH,2463289,1277278,1186011,1756468,980307,776161,1005624,705970,299654,283636,69946,2159065,203652,23142,13256,4320,33728,452023,20443,58601,267932,352284,313910,268333,222987,235072,1685390,540029,3776,71.0,77.0,928.5457042241392,65.0,12.0,471,2189,688,41.0,55.0,25.0,18.0,1.0,2.0,56.0,28.0,16.0,11.0,68.0,22.0
Madhya Pradesh,Jhabua,22.419578015397768,74.40921616766468,464,MADHYA PRADESH,1025048,515023,510025,352081,214582,137499,515121,265489,249632,115649,5132,960925,15733,38423,141,65,8871,125411,744,5591,98308,79781,40466,38236,28990,20240,307994,775664,1612,34.0,42.0,990.2955790323928,27.0,15.0,398,1109,63,50.0,52.0,49.0,12.0,0.0,1.0,67.0,22.0,12.0,10.0,30.0,76.0
Madhya Pradesh,Katni,23.724416229116937,80.33819665871127,450,MADHYA PRADESH,1292042,662013,630029,790773,460583,330190,543874,348410,195464,223902,31261,1240650,37232,3158,1167,157,5342,172416,2179,13094,198447,207366,161727,112242,80935,53578,820953,465374,1476,61.0,70.0,951.6867493538647,52.0,18.0,266,965,167,42.0,53.0,31.0,13.0,0.0,1.0,60.0,25.0,14.0,15.0,64.0,36.0
Madhya Pradesh,Mandla,22.70348712446353,80.38600543633753,454,MADHYA PRADESH,1054905,525272,529633,604962,348033,256929,559649,300235,259414,318909,9453,849518,16558,12450,436,297,1789,143803,912,9042,156711,170994,115632,82166,58066,35476,623632,376944,1043,57.0,66.0,1008.3023652507652,49.0,17.0,230,717,64,53.0,57.0,49.0,14.0,0.0,1.0,58.0,26.0,15.0,15.0,59.0,36.0
Madhya Pradesh,Mandsaur,24.19278764044944,75.43588667736759,433,MADHYA PRADESH,1340411,682851,657560,834591,502898,331693,679723,397714,282009,266350,8556,1192588,125548,1120,849,242,19029,239885,2324,12507,244891,217234,149219,109751,77219,52546,855816,467002,1475,62.0,74.0,962.9626375300029,50.0,24.0,326,968,106,51.0,58.0,43.0,18.0,0.0,1.0,58.0,26.0,16.0,18.0,64.0,35.0
Madhya Pradesh,Morena,26.37313504531724,77.88447341389724,419,MADHYA PRADESH,1965970,1068417,897553,1179685,747652,432033,675993,525329,150664,148222,16354,1875495,76159,1092,557,3234,6681,131486,1781,20172,288979,285682,228234,170254,115790,71005,1168209,706917,1924,60.0,70.0,840.0774229537717,48.0,22.0,473,1169,161,34.0,49.0,17.0,7.0,0.0,1.0,64.0,23.0,13.0,15.0,59.0,36.0
Madhya Pradesh,Neemuch,24.70311893333336,75.06608186666664,432,MADHYA PRADESH,826067,422653,403414,508834,307889,200945,418682,245708,172974,136330,4020,741288,67324,1508,1110,224,14165,145258,1945,8342,137656,127167,83189,69134,53465,42343,519073,289113,1026,62.0,73.0,954.4803893501288,50.0,23.0,182,658,119,51.0,58.0,43.0,18.0,0.0,1.0,58.0,26.0,16.0,17.0,63.0,35.0
Madhya Pradesh,Panna,24.451325840092657,80.21133001158752,426,MADHYA PRADESH,1016520,533480,483040,552559,332140,220419,431998,275375,156623,198847,12201,974748,35214,418,186,37,4734,76097,653,8501,171707,134936,99251,70359,47903,29795,557003,427997,1034,54.0,62.0,905.451000974732,46.0,16.0,238,707,52,42.0,52.0,32.0,7.0,0.0,1.0,63.0,23.0,14.0,17.0,55.0,42.0
Madhya Pradesh,Raisen,23.292518206521724,78.16305495923909,446,MADHYA PRADESH,1331597,700358,631239,820220,479093,341127,517838,370366,147472,228151,17316,1195235,120331,1725,2262,253,10637,194373,1141,9931,237981,210402,144108,117908,69419,48384,832809,444877,1460,62.0,68.0,901.3090448028008,54.0,14.0,311,964,95,39.0,53.0,23.0,15.0,0.0,1.0,63.0,24.0,14.0,18.0,63.0,33.0
Madhya Pradesh,Rajgarh,23.785499026425583,76.66431223922116,442,MADHYA PRADESH,1545814,790212,755602,804245,488797,315448,745603,429768,315835,330820,12123,1433879,106928,1243,460,121,1599,231130,1611,12718,239738,174381,103464,96386,72316,51499,742583,706958,1629,52.0,62.0,956.201626905185,42.0,20.0,341,1088,118,48.0,54.0,42.0,15.0,0.0,1.0,61.0,23.0,16.0,16.0,48.0,46.0
Madhya Pradesh,Ratlam,23.503562290502792,75.14895782122909,434,MADHYA PRADESH,1455069,738241,716828,825880,485090,340790,690980,411446,279534,305946,11928,1267043,151071,3996,1353,175,29353,213825,3644,14905,224715,194131,129392,111461,86507,67192,819266,622153,1700,57.0,66.0,970.9945668149019,48.0,18.0,318,1079,179,47.0,56.0,39.0,15.0,0.0,1.0,60.0,25.0,15.0,15.0,56.0,43.0
Madhya Pradesh,Rewa,24.861184625158856,81.57572465057183,430,MADHYA PRADESH,2365106,1225100,1140006,1441757,845572,596185,991946,617184,374762,463506,50878,2268838,85414,1964,832,986,655,251132,3406,31194,344362,330131,312931,206274,180635,122371,1508142,766166,2756,61.0,69.0,930.5411803118113,52.0,17.0,511,1831,295,42.0,50.0,33.0,11.0,0.0,1.0,62.0,23.0,15.0,15.0,64.0,32.0
Madhya Pradesh,Sagar,23.800318709677374,78.71940357771273,427,MADHYA PRADESH,2378458,1256257,1122201,1545719,908607,637112,1006035,682077,323958,378560,140458,2198297,103480,5580,4146,991,62992,366494,4546,24811,347752,426916,297079,214137,137899,116753,1554882,711804,2771,65.0,72.0,893.2893508255079,57.0,15.0,525,1753,285,42.0,54.0,29.0,15.0,0.0,1.0,62.0,24.0,14.0,15.0,65.0,30.0
Madhya Pradesh,Satna,24.62777621776502,80.75547048710598,429,MADHYA PRADESH,2228935,1157495,1071440,1371781,801051,570730,911349,590487,320862,371584,46056,2158623,59471,2228,1163,364,3135,294702,3754,22751,338947,334635,309536,197373,148091,105499,1450133,715509,2641,62.0,69.0,925.6541064972203,53.0,16.0,487,1729,282,41.0,51.0,30.0,13.0,0.0,1.0,61.0,24.0,15.0,15.0,65.0,32.0
Madhya Pradesh,Sehore,22.9297199679658,77.06780202883085,445,MADHYA PRADESH,1311332,683743,627589,780362,469208,311154,586087,364559,221528,227026,9917,1163607,137980,1404,640,357,6232,212138,1566,11166,193885,179388,136284,120687,77541,50655,765195,508396,1442,60.0,69.0,917.872650981436,50.0,19.0,293,959,117,45.0,53.0,35.0,16.0,0.0,1.0,62.0,23.0,14.0,15.0,58.0,39.0
Madhya Pradesh,Seoni,22.33230487804874,79.66053863928111,456,MADHYA PRADESH,1379131,695879,683252,864194,485341,378853,684434,394660,289774,376404,11957,1145052,79739,1857,360,7288,4982,228695,1182,10417,223650,241327,151636,116124,84398,55984,879546,458811,1369,63.0,70.0,981.8546040331724,55.0,15.0,306,942,78,50.0,57.0,42.0,17.0,0.0,1.0,59.0,26.0,15.0,16.0,64.0,33.0
Madhya Pradesh,Shahdol,23.44859864559819,81.4596831828442,460,MADHYA PRADESH,1066063,540021,526042,604194,348761,255433,493057,292402,200655,258991,14329,997073,42426,2372,912,268,1737,113184,1733,10817,161972,154282,128427,80402,60915,46513,637863,422736,1302,57.0,65.0,974.1139696419214,49.0,16.0,206,781,169,46.0,54.0,38.0,11.0,0.0,1.0,61.0,25.0,14.0,15.0,60.0,40.0
Madhya Pradesh,Shajapur,23.566620317220547,76.33555181268885,436,MADHYA PRADESH,1512681,780520,732161,894612,543509,351103,717871,431857,286014,303157,8809,1321003,174724,815,631,179,13755,232735,1382,10797,271215,239081,141225,111366,75967,48671,890916,544791,1647,59.0,70.0,938.0425869932866,48.0,22.0,351,1094,109,47.0,55.0,39.0,15.0,0.0,1.0,60.0,24.0,16.0,18.0,59.0,36.0
Madhya Pradesh,Sheopur,25.78014810996563,77.16911116838484,418,MADHYA PRADESH,687861,361784,326077,328025,208201,119824,277455,183788,93667,115261,4166,638702,41396,230,6387,201,379,74770,273,5393,90911,70840,43009,37072,24732,17091,285152,393141,693,48.0,58.0,901.3029874179068,37.0,21.0,156,463,40,40.0,51.0,29.0,11.0,0.0,1.0,65.0,23.0,12.0,13.0,41.0,57.0
Madhya Pradesh,Shivpuri,25.37802451874367,77.74861600810549,423,MADHYA PRADESH,1726050,919795,806255,900846,573242,327604,759281,481001,278280,220440,13079,1648749,51200,1117,7151,3421,12171,148128,1852,15304,261087,214162,125117,84684,58509,44812,794589,719547,1827,52.0,62.0,876.5594507471774,41.0,21.0,407,1204,124,44.0,52.0,35.0,9.0,0.0,1.0,64.0,23.0,13.0,15.0,46.0,42.0
Madhya Pradesh,Sidhi,24.17547189952905,82.1053783359498,462,MADHYA PRADESH,1127033,575912,551121,600785,353030,247755,461760,284289,177471,262030,15654,1077545,34419,511,128,92,93,102228,837,10790,185550,168224,129344,80312,60845,33067,661238,477472,3019,53.0,61.0,956.9534928947478,45.0,16.0,493,1940,419,41.0,49.0,32.0,9.0,0.0,1.0,64.0,23.0,13.0,16.0,59.0,42.0
Madhya Pradesh,Tikamgarh,25.14099852104666,78.89357064846428,424,MADHYA PRADESH,1445166,760355,684811,747940,459353,288587,655318,402776,252542,223852,15622,1383475,44143,588,251,109,15569,132725,1090,10899,202448,188694,143231,78053,58245,35034,711045,659348,1591,52.0,60.0,900.6464085854634,42.0,18.0,328,1059,121,45.0,53.0,37.0,9.0,0.0,1.0,62.0,24.0,14.0,14.0,49.0,46.0
